city,longitude,latitude,datetime,value,,新增确诊,新增治愈,新增死亡,确诊,治愈,死亡
武汉,114.3115816,30.59846674,2020/1/23,495,,495,31,23,495,31,23
孝感,113.9225101,30.93068923,2020/1/23,22,,22,0,0,22,0,0
黄冈,114.8784905,30.45935886,2020/1/23,12,,12,0,0,12,0,0
荆州,112.2455226,30.34084211,2020/1/23,8,,8,0,0,8,0,0
荆门,112.206393,31.04173258,2020/1/23,8,,8,0,0,8,0,0
仙桃,113.4496094,30.33358775,2020/1/23,2,,2,0,0,2,0,0
宜昌,111.2925492,30.69744648,2020/1/23,1,,1,0,1,1,0,1
十堰,110.8045296,32.63506186,2020/1/23,1,,1,0,0,1,0,0
佛山,113.1285122,23.02775875,2020/1/23,7,,7,0,0,7,0,0
广州,113.2714313,23.13533631,2020/1/23,7,,7,0,0,7,0,0
惠州,114.423558,23.11635885,2020/1/23,5,,5,0,0,5,0,0
韶关,113.6035273,24.81588128,2020/1/23,3,,3,0,0,3,0,0
深圳,114.0645518,22.54845664,2020/1/23,15,,15,2,0,15,2,0
湛江,110.3655544,21.27672344,2020/1/23,2,,2,0,0,2,0,0
珠海,113.5825548,22.27656465,2020/1/23,8,,8,0,0,8,0,0
中山,113.3994224,22.52231467,2020/1/23,2,,2,0,0,2,0,0
阳江,111.9884893,21.86433973,2020/1/23,3,,3,0,0,3,0,0
肇庆,112.4714889,23.05288877,2020/1/23,1,,1,0,0,1,0,0
清远,113.0624683,23.68823029,2020/1/23,1,,1,0,0,1,0,0
牡丹江,129.6395398,44.55624571,2020/1/23,1,,1,0,0,1,0,0
哈尔滨,126.5416151,45.80882583,2020/1/23,1,,1,0,0,1,0,0
大庆,125.1086576,46.59363318,2020/1/23,1,,1,0,0,1,0,0
绥化,126.9753569,46.66003218,2020/1/23,1,,1,0,1,1,0,1
昌平,116.2376179,40.22641337,2020/1/23,3,,3,0,0,3,0,0
大兴,116.3486252,39.73255524,2020/1/23,2,,2,1,0,2,1,0
丰台,116.2924019,39.8649372,2020/1/23,2,,2,0,0,2,0,0
海淀,116.3054341,39.96548984,2020/1/23,4,,4,0,0,4,0,0
通州,121.0814255,32.07035574,2020/1/23,2,,2,0,0,2,0,0
外地来京人员,117.0233851,25.99602656,2020/1/23,10,,10,0,0,10,0,0
西城,116.3725136,39.91812361,2020/1/23,4,,4,0,0,4,0,0
朝阳,120.4574995,41.57982086,2020/1/23,5,,5,0,0,5,0,0
石景山,116.2296127,39.91135381,2020/1/23,1,,1,0,0,1,0,0
顺义,116.6614243,40.13635076,2020/1/23,1,,1,0,0,1,0,0
咸阳,108.7154225,34.33547629,2020/1/23,1,,1,0,0,1,0,0
西安,108.9464656,34.34726882,2020/1/23,2,,2,0,0,2,0,0
安康,109.0356011,32.69051277,2020/1/23,1,,1,0,0,1,0,0
延安,109.4965819,36.59111104,2020/1/23,1,,1,0,0,1,0,0
成都,104.0815335,30.65582188,2020/1/23,7,,7,0,0,7,0,0
广安,106.6395527,30.46174611,2020/1/23,2,,2,0,0,2,0,0
绵阳,104.6855619,31.47366305,2020/1/23,2,,2,0,0,2,0,0
达州,107.4745939,31.21430772,2020/1/23,1,,1,0,0,1,0,0
遂宁,105.5994215,30.53909767,2020/1/23,1,,1,0,0,1,0,0
德阳,104.4044194,31.133115,2020/1/23,1,,1,0,0,1,0,0
雅安,103.0495426,30.01679255,2020/1/23,1,,1,0,0,1,0,0
大连,121.6216315,38.91895367,2020/1/23,1,,1,0,0,1,0,0
沈阳,123.4710966,41.68383007,2020/1/23,2,,2,0,0,2,0,0
朝阳,120.4574995,41.57982086,2020/1/23,1,,1,0,0,1,0,0
贵阳,106.6365768,26.65332482,2020/1/23,1,,1,0,0,1,0,0
铜仁,109.1964389,27.73778646,2020/1/23,1,,1,0,0,1,0,0
黔南州,107.5284027,26.2606162,2020/1/23,1,,1,0,0,1,0,0
北海,109.1265332,21.4868365,2020/1/23,6,,6,0,0,6,0,0
柳州,109.4344219,24.33196139,2020/1/23,2,,2,0,0,2,0,0
梧州,111.2855168,23.48274528,2020/1/23,1,,1,0,0,1,0,0
桂林,110.2035454,25.24288572,2020/1/23,2,,2,0,0,2,0,0
百色,106.6245893,23.90818593,2020/1/23,1,,1,0,0,1,0,0
河池,108.0914999,24.69891173,2020/1/23,1,,1,0,0,1,0,0
杭州,120.2155118,30.25308298,2020/1/23,6,,6,0,0,6,0,0
宁波,121.6285725,29.86603305,2020/1/23,5,,5,0,0,5,0,0
台州,121.4274347,28.66219406,2020/1/23,18,,18,0,0,18,0,0
温州,120.7064769,28.0010854,2020/1/23,6,,6,1,0,6,1,0
舟山,122.2135563,29.99091168,2020/1/23,1,,1,0,0,1,0,0
绍兴,120.5854785,30.03636931,2020/1/23,1,,1,0,0,1,0,0
金华,119.6534362,29.08463939,2020/1/23,1,,1,0,0,1,0,0
衢州,118.8665967,28.9755458,2020/1/23,2,,2,0,0,2,0,0
嘉兴,120.7635518,30.75097483,2020/1/23,3,,3,0,0,3,0,0
青岛,120.3894552,36.0722275,2020/1/23,4,,4,0,0,4,0,0
威海,122.127541,37.51643055,2020/1/23,2,,2,0,0,2,0,0
临沂,118.363533,35.11067124,2020/1/23,2,,2,0,0,2,0,0
潍坊,119.1683779,36.71265155,2020/1/23,1,,1,0,0,1,0,0
日照,119.5334154,35.422839,2020/1/23,1,,1,0,0,1,0,0
济南,117.1263994,36.6565542,2020/1/23,2,,2,0,0,2,0,0
烟台,121.4544154,37.47003838,2020/1/23,2,,2,0,0,2,0,0
济宁,116.5936123,35.42017739,2020/1/23,1,,1,0,0,1,0,0
昆明,102.8524484,24.87399815,2020/1/23,2,,2,0,0,2,0,0
海口,110.3255255,20.04404944,2020/1/23,3,,3,0,0,3,0,0
临高县,109.697443,19.91947477,2020/1/23,1,,1,0,0,1,0,0
三亚,109.5185567,18.25873629,2020/1/23,2,,2,0,0,2,0,0
万宁,110.3994344,18.80010699,2020/1/23,2,,2,0,0,2,0,0
满洲里,117.3854359,49.60409885,2020/1/23,1,,1,0,0,1,0,0
银川,106.2384936,38.49246006,2020/1/23,1,,1,0,0,1,0,0
中卫,105.2035709,37.50570142,2020/1/23,1,,1,0,0,1,0,0
兰州,103.8405212,36.06723469,2020/1/23,1,,1,0,0,1,0,0
白银,104.1444508,36.55082533,2020/1/23,1,,1,0,0,1,0,0
万州区,108.4155584,30.81362164,2020/1/23,3,,3,0,0,3,0,0
巫山县,109.8855455,31.08051881,2020/1/23,3,,3,0,0,3,0,0
长寿区,107.0875311,29.86352007,2020/1/23,3,,3,0,0,3,0,0
九龙坡区,106.5175587,29.50792772,2020/1/23,2,,2,0,0,2,0,0
垫江县,107.3395659,30.33329397,2020/1/23,2,,2,0,0,2,0,0
渝北区,106.6375591,29.72392734,2020/1/23,2,,2,0,0,2,0,0
永川区,105.9334994,29.36204634,2020/1/23,2,,2,0,0,2,0,0
涪陵区,107.3964198,29.7092782,2020/1/23,1,,1,0,0,1,0,0
开州区,108.3994977,31.16664411,2020/1/23,2,,2,0,0,2,0,0
忠县,108.0445375,30.30526839,2020/1/23,1,,1,0,0,1,0,0
大渡口区,106.4885336,29.49010713,2020/1/23,1,,1,0,0,1,0,0
云阳县,108.7034475,30.93661127,2020/1/23,1,,1,0,0,1,0,0
奉节县,109.4704728,31.02460177,2020/1/23,1,,1,0,0,1,0,0
巫溪县,109.5764026,31.40488001,2020/1/23,1,,1,0,0,1,0,0
秀山县,109.0135739,28.45344786,2020/1/23,1,,1,0,0,1,0,0
两江新区,106.5725816,29.68005454,2020/1/23,1,,1,0,0,1,0,0
苏州,120.5924122,31.30356407,2020/1/23,2,,2,0,0,2,0,0
南京,118.8024217,32.06465289,2020/1/23,3,,3,0,0,3,0,0
连云港,119.2286213,34.60224953,2020/1/23,1,,1,0,0,1,0,0
扬州,119.4194189,32.40067694,2020/1/23,1,,1,0,0,1,0,0
南通,120.9015917,31.98654943,2020/1/23,1,,1,0,0,1,0,0
无锡,120.3185833,31.49880973,2020/1/23,1,,1,0,0,1,0,0
巩义,113.028431,34.75409689,2020/1/23,2,,2,0,0,2,0,0
洛阳,112.4594213,34.62426278,2020/1/23,1,,1,0,0,1,0,0
三门峡,111.2065332,34.77832725,2020/1/23,1,,1,0,0,1,0,0
郑州,113.6314192,34.75343885,2020/1/23,3,,3,0,0,3,0,0
信阳,114.0974828,32.15301455,2020/1/23,1,,1,0,0,1,0,0
周口,114.7034825,33.63182888,2020/1/23,1,,1,0,0,1,0,0
长沙,112.9454732,28.2348894,2020/1/23,8,,8,0,0,8,0,0
怀化,110.0085143,27.5751609,2020/1/23,3,,3,0,0,3,0,0
永州,111.6194551,26.42586412,2020/1/23,4,,4,0,0,4,0,0
郴州,113.0214605,25.77668327,2020/1/23,1,,1,0,0,1,0,0
株洲,113.1404708,27.83356764,2020/1/23,1,,1,0,0,1,0,0
岳阳,113.1354894,29.36317829,2020/1/23,3,,3,0,0,3,0,0
湘潭,112.9504642,27.83570223,2020/1/23,1,,1,0,0,1,0,0
娄底,112.0015035,27.7032086,2020/1/23,3,,3,0,0,3,0,0
太原,112.5563915,37.87698903,2020/1/23,1,,1,0,0,1,0,0
石家庄,114.5215319,38.04831193,2020/1/23,1,,1,0,0,1,0,0
沧州,116.8455808,38.31021514,2020/1/23,1,,1,0,1,1,0,1
长春,125.3306021,43.8219535,2020/1/23,1,,1,0,0,1,0,0
吉林,126.5556345,43.84356783,2020/1/23,1,,1,0,0,1,0,0
松原,124.8314819,45.14740419,2020/1/23,1,,1,0,0,1,0,0
抚州,116.3645388,27.95489225,2020/1/23,1,,1,0,0,1,0,0
萍乡,113.8614964,27.62839271,2020/1/23,1,,1,0,0,1,0,0
南昌,115.8645894,28.6894553,2020/1/23,2,,2,0,0,2,0,0
九江,116.0075349,29.71134056,2020/1/23,1,,1,0,0,1,0,0
新余,114.9235347,27.8235787,2020/1/23,1,,1,0,0,1,0,0
吉安,115.0005107,27.11972683,2020/1/23,1,,1,0,0,1,0,0
合肥,117.2334427,31.82657783,2020/1/23,6,,6,0,0,6,0,0
六安,116.5264097,31.74145082,2020/1/23,2,,2,0,0,2,0,0
滁州,118.3394061,32.26127087,2020/1/23,1,,1,0,0,1,0,0
阜阳,115.8204361,32.89606099,2020/1/23,2,,2,0,0,2,0,0
亳州,115.7844632,33.8506427,2020/1/23,1,,1,0,0,1,0,0
安庆,117.0636039,30.53095657,2020/1/23,1,,1,0,0,1,0,0
池州,117.498421,30.67088379,2020/1/23,1,,1,0,0,1,0,0
蚌埠,117.3955133,32.9215237,2020/1/23,1,,1,0,0,1,0,0
福州,119.3034698,26.08042942,2020/1/23,5,,5,0,0,5,0,0
厦门,118.0964355,24.48540661,2020/1/23,3,,3,0,0,3,0,0
泉州,118.6824463,24.87995233,2020/1/23,1,,1,0,0,1,0,0
宁德,119.5545107,26.67224171,2020/1/23,1,,1,0,0,1,0,0
武汉,114.3115816,30.59846674,2020/1/24,572,,77,1,15,572,32,38
黄冈,114.8784905,30.45935886,2020/1/24,64,,52,0,0,64,0,0
孝感,113.9225101,30.93068923,2020/1/24,26,,4,0,0,26,0,0
荆门,112.206393,31.04173258,2020/1/24,21,,13,0,0,21,0,0
恩施州,109.4945926,30.27793958,2020/1/24,11,,11,0,0,11,0,0
荆州,112.2455226,30.34084211,2020/1/24,10,,2,0,0,10,0,0
仙桃,113.4496094,30.33358775,2020/1/24,10,,8,0,0,10,0,0
十堰,110.8045296,32.63506186,2020/1/24,5,,4,0,0,5,0,0
随州,113.38945,31.69651677,2020/1/24,5,,5,0,0,5,0,0
天门,113.1724092,30.66962183,2020/1/24,3,,3,0,0,3,0,0
宜昌,111.2925492,30.69744648,2020/1/24,1,,0,0,0,1,0,1
鄂州,114.9016074,30.39657217,2020/1/24,1,,1,0,0,1,0,0
襄阳,112.1285372,32.0147968,2020/1/24,1,,1,0,0,1,0,0
深圳,114.0645518,22.54845664,2020/1/24,20,,5,0,0,20,2,0
广州,113.2714313,23.13533631,2020/1/24,14,,7,0,0,14,0,0
珠海,113.5825548,22.27656465,2020/1/24,10,,2,0,0,10,0,0
佛山,113.1285122,23.02775875,2020/1/24,9,,2,0,0,9,0,0
惠州,114.423558,23.11635885,2020/1/24,7,,2,0,0,7,0,0
阳江,111.9884893,21.86433973,2020/1/24,5,,2,0,0,5,0,0
韶关,113.6035273,24.81588128,2020/1/24,3,,0,0,0,3,0,0
湛江,110.3655544,21.27672344,2020/1/24,2,,0,0,0,2,0,0
中山,113.3994224,22.52231467,2020/1/24,2,,0,0,0,2,0,0
肇庆,112.4714889,23.05288877,2020/1/24,2,,1,0,0,2,0,0
清远,113.0624683,23.68823029,2020/1/24,2,,1,0,0,2,0,0
东莞,113.7584205,23.02730841,2020/1/24,1,,1,0,0,1,0,0
汕头,116.6885286,23.35909172,2020/1/24,1,,1,0,0,1,0,0
哈尔滨,126.5416151,45.80882583,2020/1/24,6,,5,0,0,6,0,0
牡丹江,129.6395398,44.55624571,2020/1/24,1,,0,0,0,1,0,0
大庆,125.1086576,46.59363318,2020/1/24,1,,0,0,0,1,0,0
绥化,126.9753569,46.66003218,2020/1/24,1,,0,0,0,1,0,1
外地来京人员,117.0233851,25.99602656,2020/1/24,11,,1,0,0,11,0,0
海淀,116.3054341,39.96548984,2020/1/24,8,,4,0,0,8,0,0
朝阳,120.4574995,41.57982086,2020/1/24,6,,1,0,0,6,0,0
西城,116.3725136,39.91812361,2020/1/24,4,,0,0,0,4,0,0
昌平,116.2376179,40.22641337,2020/1/24,3,,0,0,0,3,0,0
通州,121.0814255,32.07035574,2020/1/24,3,,1,0,0,3,0,0
大兴,116.3486252,39.73255524,2020/1/24,2,,0,1,0,2,2,0
丰台,116.2924019,39.8649372,2020/1/24,2,,0,0,0,2,0,0
石景山,116.2296127,39.91135381,2020/1/24,1,,0,0,0,1,0,0
顺义,116.6614243,40.13635076,2020/1/24,1,,0,0,0,1,0,0
西安,108.9464656,34.34726882,2020/1/24,5,,3,0,0,5,0,0
安康,109.0356011,32.69051277,2020/1/24,3,,2,0,0,3,0,0
铜川,108.9524042,34.90263708,2020/1/24,3,,3,0,0,3,0,0
咸阳,108.7154225,34.33547629,2020/1/24,2,,1,0,0,2,0,0
延安,109.4965819,36.59111104,2020/1/24,1,,0,0,0,1,0,0
商洛,109.9244179,33.87863385,2020/1/24,1,,1,0,0,1,0,0
成都,104.0815335,30.65582188,2020/1/24,16,,9,0,0,16,0,0
广安,106.6395527,30.46174611,2020/1/24,2,,0,0,0,2,0,0
绵阳,104.6855619,31.47366305,2020/1/24,2,,0,0,0,2,0,0
遂宁,105.5994215,30.53909767,2020/1/24,2,,1,0,0,2,0,0
达州,107.4745939,31.21430772,2020/1/24,1,,0,0,0,1,0,0
德阳,104.4044194,31.133115,2020/1/24,1,,0,0,0,1,0,0
雅安,103.0495426,30.01679255,2020/1/24,1,,0,0,0,1,0,0
自贡,104.7844488,29.34558492,2020/1/24,1,,1,0,0,1,0,0
泸州,105.4485241,28.8776683,2020/1/24,1,,1,0,0,1,0,0
内江,105.064588,29.58588654,2020/1/24,1,,1,0,0,1,0,0
沈阳,123.4710966,41.68383007,2020/1/24,5,,3,0,0,5,0,0
大连,121.6216315,38.91895367,2020/1/24,4,,3,0,0,4,0,0
朝阳,120.4574995,41.57982086,2020/1/24,2,,1,0,0,2,0,0
铁岭,123.7323652,42.229948,2020/1/24,2,,2,0,0,2,0,0
葫芦岛,120.8433983,40.71736444,2020/1/24,2,,2,0,0,2,0,0
本溪,123.6925071,41.49291646,2020/1/24,1,,1,0,0,1,0,0
铜仁,109.1964389,27.73778646,2020/1/24,2,,1,0,0,2,0,0
贵阳,106.6365768,26.65332482,2020/1/24,1,,0,0,0,1,0,0
黔南州,107.5284027,26.2606162,2020/1/24,1,,0,0,0,1,0,0
北海,109.1265332,21.4868365,2020/1/24,6,,0,0,0,6,0,0
桂林,110.2035454,25.24288572,2020/1/24,6,,4,0,0,6,0,0
柳州,109.4344219,24.33196139,2020/1/24,3,,1,0,0,3,0,0
河池,108.0914999,24.69891173,2020/1/24,3,,2,0,0,3,0,0
防城港,108.3604188,21.69300529,2020/1/24,2,,2,0,0,2,0,0
梧州,111.2855168,23.48274528,2020/1/24,1,,0,0,0,1,0,0
百色,106.6245893,23.90818593,2020/1/24,1,,0,0,0,1,0,0
玉林,110.1884531,22.65983051,2020/1/24,1,,1,0,0,1,0,0
台州,121.4274347,28.66219406,2020/1/24,20,,2,0,0,20,0,0
杭州,120.2155118,30.25308298,2020/1/24,12,,6,0,0,12,0,0
温州,120.7064769,28.0010854,2020/1/24,10,,4,0,0,10,1,0
宁波,121.6285725,29.86603305,2020/1/24,6,,1,0,0,6,0,0
绍兴,120.5854785,30.03636931,2020/1/24,4,,3,0,0,4,0,0
嘉兴,120.7635518,30.75097483,2020/1/24,4,,1,0,0,4,0,0
舟山,122.2135563,29.99091168,2020/1/24,2,,1,0,0,2,0,0
金华,119.6534362,29.08463939,2020/1/24,2,,1,0,0,2,0,0
衢州,118.8665967,28.9755458,2020/1/24,2,,0,0,0,2,0,0
青岛,120.3894552,36.0722275,2020/1/24,6,,2,0,0,6,0,0
威海,122.127541,37.51643055,2020/1/24,3,,1,0,0,3,0,0
临沂,118.363533,35.11067124,2020/1/24,3,,1,0,0,3,0,0
日照,119.5334154,35.422839,2020/1/24,3,,2,0,0,3,0,0
济南,117.1263994,36.6565542,2020/1/24,3,,1,0,0,3,0,0
烟台,121.4544154,37.47003838,2020/1/24,2,,0,0,0,2,0,0
济宁,116.5936123,35.42017739,2020/1/24,2,,1,0,0,2,0,0
潍坊,119.1683779,36.71265155,2020/1/24,1,,0,0,0,1,0,0
德州,116.3655567,37.44130845,2020/1/24,1,,1,0,0,1,0,0
聊城,115.9915878,36.46275819,2020/1/24,1,,1,0,0,1,0,0
滨州,117.977404,37.3881962,2020/1/24,1,,1,0,0,1,0,0
菏泽,115.487545,35.23940742,2020/1/24,1,,1,0,0,1,0,0
昆明,102.8524484,24.87399815,2020/1/24,4,,2,0,0,4,0,0
丽江市,100.2324645,26.86065744,2020/1/24,2,,2,0,0,2,0,0
西双版纳州,100.8034468,22.01360125,2020/1/24,1,,1,0,0,1,0,0
曲靖,103.8024348,25.49640693,2020/1/24,1,,1,0,0,1,0,0
玉溪,102.5535603,24.35771094,2020/1/24,1,,1,0,0,1,0,0
红河,103.3815491,23.36999625,2020/1/24,1,,1,0,0,1,0,0
大理,100.2745828,25.61212842,2020/1/24,1,,1,0,0,1,0,0
三亚,109.5185567,18.25873629,2020/1/24,6,,4,0,0,6,0,0
万宁,110.3994344,18.80010699,2020/1/24,5,,3,0,0,5,0,0
海口,110.3255255,20.04404944,2020/1/24,3,,0,0,0,3,0,0
儋州,109.5874558,19.52714611,2020/1/24,3,,3,0,0,3,0,0
临高县,109.697443,19.91947477,2020/1/24,1,,0,0,0,1,0,0
陵水县,110.0444641,18.5123316,2020/1/24,1,,1,0,0,1,0,0
满洲里,117.3854359,49.60409885,2020/1/24,1,,0,0,0,1,0,0
锡林郭勒,114.498206,37.10778222,2020/1/24,1,,1,0,0,1,0,0
银川,106.2384936,38.49246006,2020/1/24,1,,0,0,0,1,0,0
中卫,105.2035709,37.50570142,2020/1/24,1,,0,0,0,1,0,0
固原,106.2485774,36.02161726,2020/1/24,1,,1,0,0,1,0,0
兰州,103.8405212,36.06723469,2020/1/24,2,,1,0,0,2,0,0
白银,104.1444508,36.55082533,2020/1/24,1,,0,0,0,1,0,0
临夏,103.2163906,35.60756218,2020/1/24,1,,1,0,0,1,0,0
万州区,108.4155584,30.81362164,2020/1/24,10,,7,0,0,10,0,0
长寿区,107.0875311,29.86352007,2020/1/24,5,,2,0,0,5,0,0
开州区,108.3994977,31.16664411,2020/1/24,4,,2,0,0,4,0,0
巫山县,109.8855455,31.08051881,2020/1/24,3,,0,0,0,3,0,0
永川区,105.9334994,29.36204634,2020/1/24,3,,1,0,0,3,0,0
九龙坡区,106.5175587,29.50792772,2020/1/24,3,,1,0,0,3,0,0
忠县,108.0445375,30.30526839,2020/1/24,3,,2,0,0,3,0,0
两江新区,106.5725816,29.68005454,2020/1/24,3,,2,0,0,3,0,0
石柱县,108.1204142,30.0061087,2020/1/24,3,,3,0,0,3,0,0
垫江县,107.3395659,30.33329397,2020/1/24,2,,0,0,0,2,0,0
大渡口区,106.4885336,29.49010713,2020/1/24,2,,1,0,0,2,0,0
渝北区,106.6375591,29.72392734,2020/1/24,2,,0,0,0,2,0,0
云阳县,108.7034475,30.93661127,2020/1/24,2,,1,0,0,2,0,0
巫溪县,109.5764026,31.40488001,2020/1/24,2,,1,0,0,2,0,0
合川区,106.2825411,29.97818124,2020/1/24,2,,2,0,0,2,0,0
璧山区,106.2334746,29.59834661,2020/1/24,2,,2,0,0,2,0,0
涪陵区,107.3964198,29.7092782,2020/1/24,1,,0,0,0,1,0,0
奉节县,109.4704728,31.02460177,2020/1/24,1,,0,0,0,1,0,0
秀山县,109.0135739,28.45344786,2020/1/24,1,,0,0,0,1,0,0
梁平区,107.7760973,30.66055326,2020/1/24,1,,1,0,0,1,0,0
城口县,108.6716116,31.95339075,2020/1/24,1,,1,0,0,1,0,0
丰都县,107.7374806,29.86941279,2020/1/24,1,,1,0,0,1,0,0
常州,119.9814847,31.81579565,2020/1/24,5,,5,0,0,5,0,0
南京,118.8024217,32.06465289,2020/1/24,4,,1,0,0,4,0,0
苏州,120.5924122,31.30356407,2020/1/24,3,,1,1,0,3,1,0
连云港,119.2286213,34.60224953,2020/1/24,1,,0,0,0,1,0,0
扬州,119.4194189,32.40067694,2020/1/24,1,,0,0,0,1,0,0
南通,120.9015917,31.98654943,2020/1/24,1,,0,0,0,1,0,0
无锡,120.3185833,31.49880973,2020/1/24,1,,0,0,0,1,0,0
盐城,120.1675443,33.35510092,2020/1/24,1,,1,0,0,1,0,0
宿迁,118.281574,33.96774972,2020/1/24,1,,1,0,0,1,0,0
南阳,112.5345013,32.9965622,2020/1/24,8,,8,0,0,8,0,0
郑州,113.6314192,34.75343885,2020/1/24,6,,3,0,0,6,0,0
信阳,114.0974828,32.15301455,2020/1/24,5,,4,0,0,5,0,0
周口,114.7034825,33.63182888,2020/1/24,4,,3,0,0,4,0,0
巩义,113.028431,34.75409689,2020/1/24,2,,0,0,0,2,0,0
驻马店,114.0284708,33.01784242,2020/1/24,2,,2,0,0,2,0,0
洛阳,112.4594213,34.62426278,2020/1/24,1,,0,0,0,1,0,0
三门峡,111.2065332,34.77832725,2020/1/24,1,,0,0,0,1,0,0
新乡,113.9336005,35.30963993,2020/1/24,1,,1,0,0,1,0,0
平顶山,113.1995286,33.77205075,2020/1/24,1,,1,0,0,1,0,0
固始县,115.6604879,32.17417438,2020/1/24,1,,1,0,0,1,0,0
长沙,112.9454732,28.2348894,2020/1/24,8,,0,0,0,8,0,0
怀化,110.0085143,27.5751609,2020/1/24,5,,2,0,0,5,0,0
岳阳,113.1354894,29.36317829,2020/1/24,5,,2,0,0,5,0,0
娄底,112.0015035,27.7032086,2020/1/24,5,,2,0,0,5,0,0
永州,111.6194551,26.42586412,2020/1/24,4,,0,0,0,4,0,0
益阳,112.361516,28.55971118,2020/1/24,4,,4,0,0,4,0,0
衡阳,112.5784472,26.89957614,2020/1/24,3,,3,0,0,3,0,0
常德,111.7054522,29.03775,2020/1/24,3,,3,0,0,3,0,0
湘潭,112.9504642,27.83570223,2020/1/24,2,,1,0,0,2,0,0
邵阳,111.4744329,27.24527027,2020/1/24,2,,2,0,0,2,0,0
郴州,113.0214605,25.77668327,2020/1/24,1,,0,0,0,1,0,0
株洲,113.1404708,27.83356764,2020/1/24,1,,0,0,0,1,0,0
太原,112.5563915,37.87698903,2020/1/24,2,,1,0,0,2,0,0
运城,111.0133895,35.03270691,2020/1/24,2,,2,0,0,2,0,0
大同,113.3064363,40.08246872,2020/1/24,1,,1,0,0,1,0,0
长治,113.1225589,36.20126837,2020/1/24,1,,1,0,0,1,0,0
石家庄,114.5215319,38.04831193,2020/1/24,4,,3,0,0,4,0,0
沧州,116.8455808,38.31021514,2020/1/24,2,,1,0,0,2,0,1
保定,115.4714638,38.87998777,2020/1/24,1,,1,0,0,1,0,0
承德,117.9693975,40.95785601,2020/1/24,1,,1,0,0,1,0,0
吉林,126.5556345,43.84356783,2020/1/24,2,,1,0,0,2,0,0
长春,125.3306021,43.8219535,2020/1/24,1,,0,0,0,1,0,0
松原,124.8314819,45.14740419,2020/1/24,1,,0,0,0,1,0,0
抚州,116.3645388,27.95489225,2020/1/24,4,,3,0,0,4,0,0
南昌,115.8645894,28.6894553,2020/1/24,3,,1,0,0,3,0,0
九江,116.0075349,29.71134056,2020/1/24,2,,1,0,0,2,0,0
赣州,114.9405034,25.8351761,2020/1/24,2,,2,0,0,2,0,0
上饶,117.9494596,28.46062592,2020/1/24,2,,2,0,0,2,0,0
萍乡,113.8614964,27.62839271,2020/1/24,1,,0,0,0,1,0,0
新余,114.9235347,27.8235787,2020/1/24,1,,0,0,0,1,0,0
吉安,115.0005107,27.11972683,2020/1/24,1,,0,0,0,1,0,0
景德镇,117.1845764,29.27424771,2020/1/24,1,,1,0,0,1,0,0
宜春,114.4235637,27.82085642,2020/1/24,1,,1,0,0,1,0,0
乌鲁木齐,87.62443994,43.8307632,2020/1/24,3,,3,0,0,3,0,0
合肥,117.2334427,31.82657783,2020/1/24,10,,4,0,0,10,0,0
阜阳,115.8204361,32.89606099,2020/1/24,7,,5,0,0,7,0,0
亳州,115.7844632,33.8506427,2020/1/24,4,,3,0,0,4,0,0
安庆,117.0636039,30.53095657,2020/1/24,4,,3,0,0,4,0,0
马鞍山,118.5135796,31.6762656,2020/1/24,4,,4,0,0,4,0,0
铜陵,117.8184768,30.95123324,2020/1/24,3,,3,0,0,3,0,0
六安,116.5264097,31.74145082,2020/1/24,2,,0,0,0,2,0,0
滁州,118.3394061,32.26127087,2020/1/24,2,,1,0,0,2,0,0
池州,117.498421,30.67088379,2020/1/24,1,,0,0,0,1,0,0
蚌埠,117.3955133,32.9215237,2020/1/24,1,,0,0,0,1,0,0
芜湖,118.4394314,31.35853666,2020/1/24,1,,1,0,0,1,0,0
福州,119.3034698,26.08042942,2020/1/24,6,,1,0,0,6,0,0
厦门,118.0964355,24.48540661,2020/1/24,3,,0,0,0,3,0,0
泉州,118.6824463,24.87995233,2020/1/24,3,,2,0,0,3,0,0
漳州,117.6535765,24.51892979,2020/1/24,3,,3,0,0,3,0,0
宁德,119.5545107,26.67224171,2020/1/24,2,,1,0,0,2,0,0
三明,117.6455212,26.26973652,2020/1/24,1,,1,0,0,1,0,0
西宁,101.7844502,36.6233847,2020/1/24,1,,1,0,0,1,0,0
武汉,114.3115816,30.59846674,2020/1/25,618,,46,8,7,618,40,45
黄冈,114.8784905,30.45935886,2020/1/25,122,,58,2,2,122,2,2
孝感,113.9225101,30.93068923,2020/1/25,55,,29,0,0,55,0,0
咸宁,114.3285191,29.84705595,2020/1/25,43,,43,0,0,43,0,0
荆门,112.206393,31.04173258,2020/1/25,38,,17,0,1,38,0,1
随州,113.38945,31.69651677,2020/1/25,36,,31,0,0,36,0,0
荆州,112.2455226,30.34084211,2020/1/25,33,,23,0,2,33,0,2
黄石,115.0455329,30.20520785,2020/1/25,31,,31,0,1,31,0,1
宜昌,111.2925492,30.69744648,2020/1/25,20,,19,0,0,20,0,1
十堰,110.8045296,32.63506186,2020/1/25,20,,15,0,0,20,0,0
恩施州,109.4945926,30.27793958,2020/1/25,17,,6,0,0,17,0,0
仙桃,113.4496094,30.33358775,2020/1/25,11,,1,0,0,11,0,0
襄阳,112.1285372,32.0147968,2020/1/25,8,,7,0,0,8,0,0
天门,113.1724092,30.66962183,2020/1/25,5,,2,0,0,5,0,0
鄂州,114.9016074,30.39657217,2020/1/25,1,,0,0,0,1,0,0
深圳,114.0645518,22.54845664,2020/1/25,31,,11,0,0,31,2,0
广州,113.2714313,23.13533631,2020/1/25,17,,3,0,0,17,0,0
珠海,113.5825548,22.27656465,2020/1/25,12,,2,0,0,12,0,0
佛山,113.1285122,23.02775875,2020/1/25,10,,1,0,0,10,0,0
惠州,114.423558,23.11635885,2020/1/25,8,,1,0,0,8,0,0
阳江,111.9884893,21.86433973,2020/1/25,8,,3,0,0,8,0,0
湛江,110.3655544,21.27672344,2020/1/25,4,,2,0,0,4,0,0
肇庆,112.4714889,23.05288877,2020/1/25,4,,2,0,0,4,0,0
韶关,113.6035273,24.81588128,2020/1/25,4,,1,0,0,4,0,0
清远,113.0624683,23.68823029,2020/1/25,3,,1,0,0,3,0,0
揭阳,116.3785122,23.55574049,2020/1/25,3,,3,0,0,3,0,0
中山,113.3994224,22.52231467,2020/1/25,2,,0,0,0,2,0,0
东莞,113.7584205,23.02730841,2020/1/25,2,,1,0,0,2,0,0
汕头,116.6885286,23.35909172,2020/1/25,2,,1,0,0,2,0,0
梅州,116.1295374,24.29417753,2020/1/25,1,,1,0,0,1,0,0
哈尔滨,126.5416151,45.80882583,2020/1/25,8,,2,0,0,8,0,0
大庆,125.1086576,46.59363318,2020/1/25,3,,2,0,0,3,0,0
绥化,126.9753569,46.66003218,2020/1/25,2,,1,0,0,2,0,1
牡丹江,129.6395398,44.55624571,2020/1/25,1,,0,0,0,1,0,0
齐齐哈尔,123.9245709,47.35997719,2020/1/25,1,,1,0,0,1,0,0
海淀,116.3054341,39.96548984,2020/1/25,14,,6,0,0,14,0,0
外地来京人员,117.0233851,25.99602656,2020/1/25,11,,0,0,0,11,0,0
朝阳,120.4574995,41.57982086,2020/1/25,11,,5,0,0,11,0,0
通州,121.0814255,32.07035574,2020/1/25,6,,3,0,0,6,0,0
西城,116.3725136,39.91812361,2020/1/25,5,,1,0,0,5,0,0
昌平,116.2376179,40.22641337,2020/1/25,5,,2,0,0,5,0,0
丰台,116.2924019,39.8649372,2020/1/25,4,,2,0,0,4,0,0
大兴,116.3486252,39.73255524,2020/1/25,3,,1,0,0,3,2,0
石景山,116.2296127,39.91135381,2020/1/25,2,,1,0,0,2,0,0
顺义,116.6614243,40.13635076,2020/1/25,1,,0,0,0,1,0,0
东城,116.422401,39.93482727,2020/1/25,1,,1,0,0,1,0,0
西安,108.9464656,34.34726882,2020/1/25,8,,3,0,0,8,0,0
铜川,108.9524042,34.90263708,2020/1/25,5,,2,0,0,5,0,0
咸阳,108.7154225,34.33547629,2020/1/25,3,,1,0,0,3,0,0
安康,109.0356011,32.69051277,2020/1/25,3,,0,0,0,3,0,0
延安,109.4965819,36.59111104,2020/1/25,1,,0,0,0,1,0,0
商洛,109.9244179,33.87863385,2020/1/25,1,,0,0,0,1,0,0
汉中,107.0294302,33.07379991,2020/1/25,1,,1,0,0,1,0,0
成都,104.0815335,30.65582188,2020/1/25,22,,6,0,0,22,0,0
绵阳,104.6855619,31.47366305,2020/1/25,5,,3,0,0,5,0,0
广安,106.6395527,30.46174611,2020/1/25,2,,0,0,0,2,0,0
遂宁,105.5994215,30.53909767,2020/1/25,2,,0,0,0,2,0,0
泸州,105.4485241,28.8776683,2020/1/25,2,,1,0,0,2,0,0
南充,106.1175026,30.84378251,2020/1/25,2,,2,0,0,2,0,0
甘孜州,101.9685467,30.05527884,2020/1/25,2,,2,0,0,2,0,0
德阳,104.4044194,31.133115,2020/1/25,1,,0,0,0,1,0,0
雅安,103.0495426,30.01679255,2020/1/25,1,,0,0,0,1,0,0
达州,107.4745939,31.21430772,2020/1/25,1,,0,0,0,1,0,0
自贡,104.7844488,29.34558492,2020/1/25,1,,0,0,0,1,0,0
内江,105.064588,29.58588654,2020/1/25,1,,0,0,0,1,0,0
乐山,103.7725376,29.55794072,2020/1/25,1,,1,0,0,1,0,0
眉山,103.8565633,30.08252612,2020/1/25,1,,1,0,0,1,0,0
沈阳,123.4710966,41.68383007,2020/1/25,6,,1,0,0,6,0,0
大连,121.6216315,38.91895367,2020/1/25,4,,0,0,0,4,0,0
朝阳,120.4574995,41.57982086,2020/1/25,2,,0,0,0,2,0,0
铁岭,123.7323652,42.229948,2020/1/25,2,,0,0,0,2,0,0
葫芦岛,120.8433983,40.71736444,2020/1/25,2,,0,0,0,2,0,0
本溪,123.6925071,41.49291646,2020/1/25,2,,1,0,0,2,0,0
营口,122.2415747,40.67313684,2020/1/25,1,,1,0,0,1,0,0
丹东,124.3615473,40.00640871,2020/1/25,1,,1,0,0,1,0,0
盘锦,122.0774901,41.12587529,2020/1/25,1,,1,0,0,1,0,0
铜仁,109.1964389,27.73778646,2020/1/25,2,,0,0,0,2,0,0
贵阳,106.6365768,26.65332482,2020/1/25,1,,0,0,0,1,0,0
黔南州,107.5284027,26.2606162,2020/1/25,1,,0,0,0,1,0,0
黔西南州,104.9124921,25.09396735,2020/1/25,1,,1,0,0,1,0,0
桂林,110.2035454,25.24288572,2020/1/25,11,,5,0,0,11,0,0
北海,109.1265332,21.4868365,2020/1/25,9,,3,0,0,9,0,0
柳州,109.4344219,24.33196139,2020/1/25,5,,2,0,0,5,0,0
河池,108.0914999,24.69891173,2020/1/25,3,,0,0,0,3,0,0
梧州,111.2855168,23.48274528,2020/1/25,2,,1,0,0,2,0,0
百色,106.6245893,23.90818593,2020/1/25,2,,1,0,0,2,0,0
防城港,108.3604188,21.69300529,2020/1/25,2,,0,0,0,2,0,0
南宁,108.3734508,22.8226066,2020/1/25,1,,1,0,0,1,0,0
玉林,110.1884531,22.65983051,2020/1/25,1,,0,0,0,1,0,0
杭州,120.2155118,30.25308298,2020/1/25,27,,15,0,0,27,0,0
台州,121.4274347,28.66219406,2020/1/25,21,,1,0,0,21,0,0
温州,120.7064769,28.0010854,2020/1/25,18,,8,0,0,18,1,0
宁波,121.6285725,29.86603305,2020/1/25,13,,7,0,0,13,0,0
嘉兴,120.7635518,30.75097483,2020/1/25,8,,4,0,0,8,0,0
绍兴,120.5854785,30.03636931,2020/1/25,5,,1,0,0,5,0,0
金华,119.6534362,29.08463939,2020/1/25,3,,1,0,0,3,0,0
衢州,118.8665967,28.9755458,2020/1/25,3,,1,0,0,3,0,0
丽水,119.9295731,28.47327818,2020/1/25,3,,3,0,0,3,0,0
舟山,122.2135563,29.99091168,2020/1/25,2,,0,0,0,2,0,0
湖州,120.0945166,30.89896394,2020/1/25,1,,1,0,0,1,0,0
青岛,120.3894552,36.0722275,2020/1/25,8,,2,0,0,8,0,0
临沂,118.363533,35.11067124,2020/1/25,7,,4,0,0,7,0,0
济宁,116.5936123,35.42017739,2020/1/25,5,,3,0,0,5,0,0
济南,117.1263994,36.6565542,2020/1/25,5,,2,0,0,5,0,0
威海,122.127541,37.51643055,2020/1/25,4,,1,0,0,4,0,0
日照,119.5334154,35.422839,2020/1/25,4,,1,0,0,4,0,0
德州,116.3655567,37.44130845,2020/1/25,3,,2,0,0,3,0,0
滨州,117.977404,37.3881962,2020/1/25,3,,2,0,0,3,0,0
潍坊,119.1683779,36.71265155,2020/1/25,2,,1,0,0,2,0,0
烟台,121.4544154,37.47003838,2020/1/25,2,,0,0,0,2,0,0
聊城,115.9915878,36.46275819,2020/1/25,1,,0,0,0,1,0,0
菏泽,115.487545,35.23940742,2020/1/25,1,,0,0,0,1,0,0
淄博市,118.0614525,36.81908568,2020/1/25,1,,1,0,0,1,0,0
昆明,102.8524484,24.87399815,2020/1/25,4,,0,0,0,4,0,0
丽江,100.2324645,26.86065744,2020/1/25,2,,2,0,0,2,0,0
西双版纳,100.8034468,22.01360125,2020/1/25,1,,1,0,0,1,0,0
曲靖,103.8024348,25.49640693,2020/1/25,1,,0,0,0,1,0,0
玉溪,102.5535603,24.35771094,2020/1/25,1,,0,0,0,1,0,0
红河,103.3815491,23.36999625,2020/1/25,1,,0,0,0,1,0,0
大理,100.2745828,25.61212842,2020/1/25,1,,0,0,0,1,0,0
三亚,109.5185567,18.25873629,2020/1/25,8,,2,0,0,8,0,0
万宁,110.3994344,18.80010699,2020/1/25,5,,0,0,0,5,0,0
海口,110.3255255,20.04404944,2020/1/25,3,,0,0,0,3,0,0
儋州,109.5874558,19.52714611,2020/1/25,3,,0,0,0,3,0,0
临高县,109.697443,19.91947477,2020/1/25,1,,0,0,0,1,0,0
陵水县,110.0444641,18.5123316,2020/1/25,1,,0,0,0,1,0,0
澄迈县,110.0135109,19.74434867,2020/1/25,1,,1,0,0,1,0,0
锡林郭勒盟,116.0543914,43.93942267,2020/1/25,2,,2,0,0,2,0,0
鄂尔多斯,109.7874432,39.61448231,2020/1/25,2,,2,0,0,2,0,0
满洲里,117.3854359,49.60409885,2020/1/25,1,,0,0,0,1,0,0
赤峰,118.8955204,42.2616861,2020/1/25,1,,1,0,0,1,0,0
呼伦贝尔牙克石市,120.7183468,49.29202369,2020/1/25,1,,1,0,0,1,0,0
银川,106.2384936,38.49246006,2020/1/25,2,,1,0,0,2,0,0
中卫,105.2035709,37.50570142,2020/1/25,1,,0,0,0,1,0,0
固原,106.2485774,36.02161726,2020/1/25,1,,0,0,0,1,0,0
兰州,103.8405212,36.06723469,2020/1/25,4,,2,0,0,4,0,0
白银市,104.1444508,36.55082533,2020/1/25,1,,1,0,0,1,0,0
临夏,103.2163906,35.60756218,2020/1/25,1,,0,0,0,1,0,0
定西,104.6324201,35.58683293,2020/1/25,1,,1,0,0,1,0,0
河北区,117.2035928,39.15348514,2020/1/25,5,,5,0,0,5,0,0
河东区,117.258413,39.13448733,2020/1/25,3,,3,0,0,3,0,0
外地来津,90.93673264,29.04970447,2020/1/25,2,,2,0,0,2,0,0
滨海新区,117.7173988,39.00941577,2020/1/25,1,,1,0,0,1,0,0
和平区,121.150732,24.27955689,2020/1/25,1,,1,0,0,1,0,0
南开区,117.1565154,39.14410528,2020/1/25,1,,1,0,0,1,0,0
西青区,117.0144102,39.14872661,2020/1/25,1,,1,0,0,1,0,0
万州区,108.4155584,30.81362164,2020/1/25,13,,3,0,0,13,0,0
长寿区,107.0875311,29.86352007,2020/1/25,5,,0,0,0,5,0,0
忠县,108.0445375,30.30526839,2020/1/25,5,,2,0,0,5,0,0
大渡口区,106.4885336,29.49010713,2020/1/25,4,,2,0,0,4,0,0
渝北区,106.6375591,29.72392734,2020/1/25,4,,2,0,0,4,0,0
开州区,108.3994977,31.16664411,2020/1/25,4,,0,0,0,4,0,0
云阳县,108.7034475,30.93661127,2020/1/25,4,,2,0,0,4,0,0
九龙坡区,106.5175587,29.50792772,2020/1/25,3,,0,0,0,3,0,0
永川区,105.9334994,29.36204634,2020/1/25,3,,0,0,0,3,0,0
奉节县,109.4704728,31.02460177,2020/1/25,3,,2,0,0,3,0,0
巫山县,109.8855455,31.08051881,2020/1/25,3,,0,0,0,3,0,0
巫溪县,109.5764026,31.40488001,2020/1/25,3,,1,0,0,3,0,0
两江新区,106.5725816,29.68005454,2020/1/25,3,,0,0,0,3,0,0
石柱县,108.1204142,30.0061087,2020/1/25,3,,0,0,0,3,0,0
江北区,121.5604213,29.89294838,2020/1/25,2,,2,0,0,2,0,0
垫江县,107.3395659,30.33329397,2020/1/25,2,,0,0,0,2,0,0
合川区,106.2825411,29.97818124,2020/1/25,2,,0,0,0,2,0,0
璧山区,106.2334746,29.59834661,2020/1/25,2,,0,0,0,2,0,0
铜梁区,106.0634495,29.85050878,2020/1/25,1,,1,0,0,1,0,0
大足区,105.7284046,29.71311351,2020/1/25,1,,1,0,0,1,0,0
涪陵区,107.3964198,29.7092782,2020/1/25,1,,0,0,0,1,0,0
秀山县,109.0135739,28.45344786,2020/1/25,1,,0,0,0,1,0,0
梁平区,107.7760973,30.66055326,2020/1/25,1,,0,0,0,1,0,0
城口县,108.6716116,31.95339075,2020/1/25,1,,0,0,0,1,0,0
丰都县,107.7374806,29.86941279,2020/1/25,1,,0,0,0,1,0,0
苏州,120.5924122,31.30356407,2020/1/25,7,,4,0,0,7,1,0
南京,118.8024217,32.06465289,2020/1/25,7,,3,0,0,7,0,0
常州,119.9814847,31.81579565,2020/1/25,5,,0,0,0,5,0,0
连云港,119.2286213,34.60224953,2020/1/25,3,,2,0,0,3,0,0
无锡,120.3185833,31.49880973,2020/1/25,2,,1,0,0,2,0,0
南通,120.9015917,31.98654943,2020/1/25,2,,1,0,0,2,0,0
镇江,119.4304894,32.19471592,2020/1/25,2,,2,0,0,2,0,0
扬州,119.4194189,32.40067694,2020/1/25,1,,0,0,0,1,0,0
盐城,120.1675443,33.35510092,2020/1/25,1,,0,0,0,1,0,0
宿迁,118.281574,33.96774972,2020/1/25,1,,0,0,0,1,0,0
淮安,119.0214837,33.6162953,2020/1/25,1,,1,0,0,1,0,0
泰州,119.9295663,32.46067505,2020/1/25,1,,1,0,0,1,0,0
信阳,114.0974828,32.15301455,2020/1/25,22,,17,0,0,22,0,0
郑州,113.6314192,34.75343885,2020/1/25,20,,14,0,0,20,0,0
南阳,112.5345013,32.9965622,2020/1/25,15,,7,0,1,15,0,1
驻马店,114.0284708,33.01784242,2020/1/25,7,,5,0,0,7,0,0
周口,114.7034825,33.63182888,2020/1/25,5,,1,0,0,5,0,0
新乡,113.9336005,35.30963993,2020/1/25,3,,2,0,0,3,0,0
安阳市,114.3995004,36.10594098,2020/1/25,3,,3,0,0,3,0,0
漯河市,114.0234208,33.58771071,2020/1/25,3,,3,0,0,3,0,0
三门峡,111.2065332,34.77832725,2020/1/25,2,,1,0,0,2,0,0
平顶山,113.1995286,33.77205075,2020/1/25,2,,1,0,0,2,0,0
洛阳,112.4594213,34.62426278,2020/1/25,1,,0,0,0,1,0,0
长沙,112.9454732,28.2348894,2020/1/25,18,,10,0,0,18,0,0
怀化,110.0085143,27.5751609,2020/1/25,8,,3,0,0,8,0,0
常德,111.7054522,29.03775,2020/1/25,7,,4,0,0,7,0,0
岳阳,113.1354894,29.36317829,2020/1/25,6,,1,0,0,6,0,0
娄底,112.0015035,27.7032086,2020/1/25,5,,0,0,0,5,0,0
永州,111.6194551,26.42586412,2020/1/25,4,,0,0,0,4,0,0
益阳,112.361516,28.55971118,2020/1/25,4,,0,0,0,4,0,0
株洲,113.1404708,27.83356764,2020/1/25,3,,2,0,0,3,0,0
湘潭,112.9504642,27.83570223,2020/1/25,3,,1,0,0,3,0,0
郴州,113.0214605,25.77668327,2020/1/25,3,,2,0,0,3,0,0
衡阳,112.5784472,26.89957614,2020/1/25,3,,0,0,0,3,0,0
邵阳,111.4744329,27.24527027,2020/1/25,2,,0,0,0,2,0,0
晋中,112.7595948,37.69283941,2020/1/25,2,,2,0,0,2,0,0
太原,112.5563915,37.87698903,2020/1/25,2,,0,0,0,2,0,0
运城,111.0133895,35.03270691,2020/1/25,2,,0,0,0,2,0,0
阳泉,113.5876167,37.86236085,2020/1/25,1,,1,0,0,1,0,0
大同,113.3064363,40.08246872,2020/1/25,1,,0,0,0,1,0,0
长治,113.1225589,36.20126837,2020/1/25,1,,0,0,0,1,0,0
石家庄,114.5215319,38.04831193,2020/1/25,5,,1,0,0,5,0,0
保定,115.4714638,38.87998777,2020/1/25,3,,2,0,0,3,0,0
沧州,116.8455808,38.31021514,2020/1/25,2,,0,0,0,2,0,1
邯郸市,114.5456282,36.63126273,2020/1/25,2,,2,0,0,2,0,0
承德,117.9693975,40.95785601,2020/1/25,1,,0,0,0,1,0,0
赣州,114.9405034,25.8351761,2020/1/25,7,,5,0,0,7,0,0
抚州,116.3645388,27.95489225,2020/1/25,6,,2,0,0,6,0,0
上饶,117.9494596,28.46062592,2020/1/25,6,,4,0,0,6,0,0
宜春,114.4235637,27.82085642,2020/1/25,5,,4,0,0,5,0,0
南昌,115.8645894,28.6894553,2020/1/25,4,,1,0,0,4,0,0
萍乡,113.8614964,27.62839271,2020/1/25,2,,1,0,0,2,0,0
九江,116.0075349,29.71134056,2020/1/25,2,,0,0,0,2,0,0
吉安,115.0005107,27.11972683,2020/1/25,2,,1,0,0,2,0,0
新余,114.9235347,27.8235787,2020/1/25,1,,0,0,0,1,0,0
景德镇,117.1845764,29.27424771,2020/1/25,1,,0,0,0,1,0,0
乌鲁木齐,87.62443994,43.8307632,2020/1/25,3,,0,0,0,3,0,0
合肥,117.2334427,31.82657783,2020/1/25,13,,3,0,0,13,0,0
阜阳,115.8204361,32.89606099,2020/1/25,10,,3,0,0,10,0,0
马鞍山,118.5135796,31.6762656,2020/1/25,7,,3,0,0,7,0,0
亳州,115.7844632,33.8506427,2020/1/25,6,,2,0,0,6,0,0
安庆,117.0636039,30.53095657,2020/1/25,5,,1,0,0,5,0,0
六安,116.5264097,31.74145082,2020/1/25,3,,1,0,0,3,0,0
铜陵,117.8184768,30.95123324,2020/1/25,3,,0,0,0,3,0,0
芜湖,118.4394314,31.35853666,2020/1/25,3,,2,0,0,3,0,0
滁州,118.3394061,32.26127087,2020/1/25,2,,0,0,0,2,0,0
宿州,116.9705439,33.65209533,2020/1/25,2,,2,0,0,2,0,0
池州,117.498421,30.67088379,2020/1/25,1,,0,0,0,1,0,0
蚌埠,117.3955133,32.9215237,2020/1/25,1,,0,0,0,1,0,0
宣城,118.7655342,30.94660155,2020/1/25,1,,1,0,0,1,0,0
淮北,116.8045373,33.9616563,2020/1/25,1,,1,0,0,1,0,0
淮南,117.0063889,32.6318474,2020/1/25,1,,1,0,0,1,0,0
黄山,118.3454373,29.72188979,2020/1/25,1,,1,0,0,1,0,0
福州,119.3034698,26.08042942,2020/1/25,13,,7,0,0,13,0,0
泉州,118.6824463,24.87995233,2020/1/25,5,,2,0,0,5,0,0
厦门,118.0964355,24.48540661,2020/1/25,4,,1,0,0,4,0,0
漳州,117.6535765,24.51892979,2020/1/25,4,,1,0,0,4,0,0
三明,117.6455212,26.26973652,2020/1/25,4,,3,0,0,4,0,0
宁德,119.5545107,26.67224171,2020/1/25,3,,1,0,0,3,0,0
莆田,119.014521,25.45986546,2020/1/25,1,,1,0,0,1,0,0
南平,118.1843695,26.64777287,2020/1/25,1,,1,0,0,1,0,0
吉林,126.5556345,43.84356783,2020/1/25,2,,80,2,18,698,42,63
长春,125.3306021,43.8219535,2020/1/25,1,,32,2,2,154,4,4
松原,124.8314819,45.14740419,2020/1/25,1,,45,0,1,100,0,1
西宁,101.7844502,36.6233847,2020/1/25,1,,52,0,2,90,0,3
丽江市,100.2324645,26.86065744,2020/1/25,0,,21,0,0,64,0,0
西双版纳州,100.8034468,22.01360125,2020/1/25,0,,16,0,0,52,0,0
锡林郭勒,114.498206,37.10778222,2020/1/25,0,,14,1,0,47,1,2
白银,104.1444508,36.55082533,2020/1/25,0,,20,0,0,40,0,0
巩义,113.028431,34.75409689,2020/1/25,0,,5,0,0,36,0,1
固始县,115.6604879,32.17417438,2020/1/25,0,,28,0,0,36,0,0
武汉,114.3115816,30.59846674,2020/1/26,698,,11,0,0,31,0,1
黄冈,114.8784905,30.45935886,2020/1/26,154,,8,0,0,25,0,0
孝感,113.9225101,30.93068923,2020/1/26,100,,19,0,0,20,0,0
荆门,112.206393,31.04173258,2020/1/26,90,,8,0,0,13,0,0
咸宁,114.3285191,29.84705595,2020/1/26,64,,1,0,0,12,0,0
随州,113.38945,31.69651677,2020/1/26,52,,5,0,1,5,0,1
荆州,112.2455226,30.34084211,2020/1/26,47,,24,0,0,41,0,0
十堰,110.8045296,32.63506186,2020/1/26,40,,5,0,0,36,2,0
黄石,115.0455329,30.20520785,2020/1/26,36,,4,0,0,14,0,0
襄阳,112.1285372,32.0147968,2020/1/26,36,,0,0,0,12,0,0
宜昌,111.2925492,30.69744648,2020/1/26,31,,0,0,0,8,0,0
恩施州,109.4945926,30.27793958,2020/1/26,25,,0,0,0,8,0,0
鄂州,114.9016074,30.39657217,2020/1/26,20,,1,0,0,5,0,0
天门,113.1724092,30.66962183,2020/1/26,13,,3,0,0,5,0,0
仙桃,113.4496094,30.33358775,2020/1/26,12,,0,0,0,4,0,0
潜江,112.9054741,30.40835793,2020/1/26,5,,0,0,0,4,0,0
广州,113.2714313,23.13533631,2020/1/26,41,,0,0,0,3,0,0
深圳,114.0645518,22.54845664,2020/1/26,36,,0,0,0,3,0,0
佛山,113.1285122,23.02775875,2020/1/26,14,,2,0,0,3,0,0
珠海,113.5825548,22.27656465,2020/1/26,12,,0,0,0,2,0,0
惠州,114.423558,23.11635885,2020/1/26,8,,0,0,0,2,0,0
阳江,111.9884893,21.86433973,2020/1/26,8,,1,0,0,1,0,0
湛江,110.3655544,21.27672344,2020/1/26,5,,23,3,0,23,3,0
中山,113.3994224,22.52231467,2020/1/26,5,,7,0,0,7,0,0
肇庆,112.4714889,23.05288877,2020/1/26,4,,5,0,0,5,0,0
韶关,113.6035273,24.81588128,2020/1/26,4,,5,0,0,5,0,0
清远,113.0624683,23.68823029,2020/1/26,3,,3,0,0,3,0,0
揭阳,116.3785122,23.55574049,2020/1/26,3,,2,0,0,2,0,0
梅州,116.1295374,24.29417753,2020/1/26,3,,2,0,0,2,0,0
东莞,113.7584205,23.02730841,2020/1/26,2,,2,0,0,2,0,0
汕头,116.6885286,23.35909172,2020/1/26,2,,1,0,0,1,0,0
汕尾,115.3815526,22.79126304,2020/1/26,1,,1,0,0,1,0,0
外地来沪人员,117.0233851,25.99602656,2020/1/26,23,,1,0,0,1,0,0
浦东新区,121.5504546,31.22734829,2020/1/26,7,,1,0,0,1,0,0
长宁区,121.4304544,31.22684797,2020/1/26,5,,0,0,0,8,0,0
静安区,121.4534318,31.23384493,2020/1/26,5,,2,0,0,5,0,0
徐汇区,121.4433964,31.19455677,2020/1/26,3,,1,0,0,3,0,1
虹口区,121.5115865,31.2697467,2020/1/26,2,,0,0,0,1,0,0
闵行区,121.3886119,31.11884258,2020/1/26,2,,0,0,0,1,0,0
青浦区,121.1305531,31.15545432,2020/1/26,2,,1,0,0,1,0,0
黄浦区,121.4915856,31.23724715,2020/1/26,1,,1,0,0,1,0,0
宝山区,121.496563,31.41027947,2020/1/26,1,,1,0,0,1,0,0
嘉定区,121.2725951,31.38015534,2020/1/26,1,,3,0,0,17,0,0
奉贤区,121.4805037,30.92372011,2020/1/26,1,,0,0,0,11,0,0
哈尔滨,126.5416151,45.80882583,2020/1/26,8,,0,0,0,11,0,0
大庆,125.1086576,46.59363318,2020/1/26,5,,2,0,0,7,0,0
绥化,126.9753569,46.66003218,2020/1/26,3,,2,0,0,7,0,0
牡丹江,129.6395398,44.55624571,2020/1/26,1,,0,0,0,6,0,0
齐齐哈尔,123.9245709,47.35997719,2020/1/26,1,,2,0,0,5,2,0
佳木斯,130.3273591,46.80568999,2020/1/26,1,,0,0,0,4,0,0
双鸭山,131.1653417,46.6531859,2020/1/26,1,,0,0,0,2,0,0
七台河,131.0115446,45.77630032,2020/1/26,1,,0,0,0,1,0,0
海淀,116.3054341,39.96548984,2020/1/26,17,,0,0,0,1,0,0
外地来京人员,117.0233851,25.99602656,2020/1/26,11,,4,0,0,12,0,0
朝阳,120.4574995,41.57982086,2020/1/26,11,,4,0,0,7,0,0
西城,116.3725136,39.91812361,2020/1/26,7,,0,0,0,5,0,0
昌平,116.2376179,40.22641337,2020/1/26,7,,1,0,0,4,0,0
通州,121.0814255,32.07035574,2020/1/26,6,,2,0,0,3,0,0
大兴,116.3486252,39.73255524,2020/1/26,5,,1,0,0,2,0,0
丰台,116.2924019,39.8649372,2020/1/26,4,,0,0,0,1,0,0
石景山,116.2296127,39.91135381,2020/1/26,2,,1,0,0,1,0,0
顺义,116.6614243,40.13635076,2020/1/26,1,,11,0,0,33,0,0
东城,116.422401,39.93482727,2020/1/26,1,,2,0,0,7,0,0
西安,108.9464656,34.34726882,2020/1/26,12,,4,0,0,6,0,0
安康,109.0356011,32.69051277,2020/1/26,7,,2,0,0,3,0,0
铜川,108.9524042,34.90263708,2020/1/26,5,,1,0,0,3,0,0
咸阳,108.7154225,34.33547629,2020/1/26,4,,0,0,0,2,0,0
汉中,107.0294302,33.07379991,2020/1/26,3,,1,0,0,2,0,0
延安,109.4965819,36.59111104,2020/1/26,2,,0,0,0,2,0,0
商洛,109.9244179,33.87863385,2020/1/26,1,,0,0,0,2,0,0
渭南,109.5165896,34.50571552,2020/1/26,1,,2,0,0,2,0,0
成都,104.0815335,30.65582188,2020/1/26,33,,0,0,0,1,0,0
绵阳,104.6855619,31.47366305,2020/1/26,7,,0,0,0,1,0,0
广安,106.6395527,30.46174611,2020/1/26,6,,0,0,0,1,0,0
达州,107.4745939,31.21430772,2020/1/26,3,,0,0,0,1,0,0
泸州,105.4485241,28.8776683,2020/1/26,3,,0,0,0,1,0,0
遂宁,105.5994215,30.53909767,2020/1/26,2,,1,0,0,1,0,0
自贡,104.7844488,29.34558492,2020/1/26,2,,1,0,0,1,0,0
南充,106.1175026,30.84378251,2020/1/26,2,,1,0,0,7,0,0
甘孜州,101.9685467,30.05527884,2020/1/26,2,,1,0,0,5,0,0
资阳,104.6344353,30.13495656,2020/1/26,2,,3,0,0,4,0,0
德阳,104.4044194,31.133115,2020/1/26,1,,0,0,0,2,0,0
雅安,103.0495426,30.01679255,2020/1/26,1,,0,0,0,2,0,0
内江,105.064588,29.58588654,2020/1/26,1,,0,0,0,2,0,0
乐山,103.7725376,29.55794072,2020/1/26,1,,0,0,0,2,0,0
眉山,103.8565633,30.08252612,2020/1/26,1,,1,0,0,2,0,0
宜宾,104.6494037,28.75800703,2020/1/26,1,,0,0,0,1,0,0
凉山州,102.2735027,27.8877523,2020/1/26,1,,0,0,0,2,0,0
沈阳,123.4710966,41.68383007,2020/1/26,7,,1,0,0,2,0,0
大连,121.6216315,38.91895367,2020/1/26,5,,0,0,0,1,0,0
丹东,124.3615473,40.00640871,2020/1/26,4,,0,0,0,1,0,0
朝阳,120.4574995,41.57982086,2020/1/26,2,,1,0,0,1,0,0
铁岭,123.7323652,42.229948,2020/1/26,2,,3,0,0,14,0,0
葫芦岛,120.8433983,40.71736444,2020/1/26,2,,0,0,0,9,0,0
本溪,123.6925071,41.49291646,2020/1/26,2,,1,0,0,6,0,0
盘锦,122.0774901,41.12587529,2020/1/26,2,,4,0,0,5,0,0
营口,122.2415747,40.67313684,2020/1/26,1,,0,0,0,3,0,0
铜仁,109.1964389,27.73778646,2020/1/26,2,,1,0,0,3,0,0
黔南州,107.5284027,26.2606162,2020/1/26,2,,0,0,0,2,0,0
贵阳,106.6365768,26.65332482,2020/1/26,1,,0,0,0,2,0,0
黔西南州,104.9124921,25.09396735,2020/1/26,1,,1,0,0,2,0,0
六盘水,104.8375546,26.59883311,2020/1/26,1,,14,0,0,32,1,0
桂林,110.2035454,25.24288572,2020/1/26,14,,0,0,0,27,0,0
北海,109.1265332,21.4868365,2020/1/26,9,,1,0,0,22,0,0
柳州,109.4344219,24.33196139,2020/1/26,6,,0,0,0,13,0,0
南宁,108.3734508,22.8226066,2020/1/26,5,,0,0,0,8,0,0
河池,108.0914999,24.69891173,2020/1/26,3,,1,0,0,6,0,0
防城港,108.3604188,21.69300529,2020/1/26,3,,2,0,0,5,0,0
梧州,111.2855168,23.48274528,2020/1/26,2,,2,0,0,5,0,0
百色,106.6245893,23.90818593,2020/1/26,2,,2,0,0,4,0,0
玉林,110.1884531,22.65983051,2020/1/26,2,,0,0,0,3,0,0
温州,120.7064769,28.0010854,2020/1/26,32,,2,0,0,3,0,0
杭州,120.2155118,30.25308298,2020/1/26,27,,5,1,0,13,1,0
台州,121.4274347,28.66219406,2020/1/26,22,,5,0,0,9,0,0
宁波,121.6285725,29.86603305,2020/1/26,13,,6,0,0,8,0,0
嘉兴,120.7635518,30.75097483,2020/1/26,8,,0,0,0,7,0,0
绍兴,120.5854785,30.03636931,2020/1/26,6,,2,0,0,7,0,0
金华,119.6534362,29.08463939,2020/1/26,5,,3,0,0,6,0,0
衢州,118.8665967,28.9755458,2020/1/26,5,,1,0,0,5,0,0
舟山,122.2135563,29.99091168,2020/1/26,4,,0,0,0,5,0,0
丽水,119.9295731,28.47327818,2020/1/26,3,,3,0,0,4,0,0
湖州,120.0945166,30.89896394,2020/1/26,3,,1,0,0,3,0,0
青岛,120.3894552,36.0722275,2020/1/26,13,,0,0,0,3,0,0
威海,122.127541,37.51643055,2020/1/26,9,,2,0,0,2,0,0
烟台,121.4544154,37.47003838,2020/1/26,8,,2,0,0,2,0,0
临沂,118.363533,35.11067124,2020/1/26,7,,0,0,0,1,0,0
济南,117.1263994,36.6565542,2020/1/26,7,,3,0,0,7,0,0
德州,116.3655567,37.44130845,2020/1/26,6,,3,0,0,5,0,0
日照,119.5334154,35.422839,2020/1/26,5,,3,0,0,3,0,0
济宁,116.5936123,35.42017739,2020/1/26,5,,1,0,0,2,0,0
菏泽,115.487545,35.23940742,2020/1/26,4,,1,0,0,2,0,0
潍坊,119.1683779,36.71265155,2020/1/26,3,,1,0,0,2,0,0
滨州,117.977404,37.3881962,2020/1/26,3,,2,0,0,2,0,0
淄博,118.0614525,36.81908568,2020/1/26,2,,0,0,0,1,0,0
枣庄,117.3305419,34.81599405,2020/1/26,2,,0,0,0,1,0,0
聊城,115.9915878,36.46275819,2020/1/26,1,,1,0,0,1,0,0
昆明,102.8524484,24.87399815,2020/1/26,7,,3,0,0,11,0,0
丽江,100.2324645,26.86065744,2020/1/26,5,,2,0,0,7,0,0
保山,99.17727329,25.13903879,2020/1/26,3,,3,0,0,6,0,0
曲靖,103.8024348,25.49640693,2020/1/26,2,,2,0,0,5,0,0
红河,103.3815491,23.36999625,2020/1/26,2,,1,0,0,2,0,0
大理,100.2745828,25.61212842,2020/1/26,2,,0,0,0,1,0,0
德宏,98.59135936,24.4380107,2020/1/26,2,,0,0,0,1,0,0
西双版纳,100.8034468,22.01360125,2020/1/26,1,,2,0,0,2,0,0
玉溪,102.5535603,24.35771094,2020/1/26,1,,1,0,0,1,0,0
昭通,103.7235118,27.34408386,2020/1/26,1,,1,0,0,1,0,0
三亚,109.5185567,18.25873629,2020/1/26,11,,1,0,0,1,0,0
万宁,110.3994344,18.80010699,2020/1/26,7,,1,0,0,1,0,0
海口,110.3255255,20.04404944,2020/1/26,6,,1,0,0,1,0,0
儋州,109.5874558,19.52714611,2020/1/26,5,,1,0,0,1,0,0
澄迈县,110.0135109,19.74434867,2020/1/26,2,,1,0,0,1,0,0
临高县,109.697443,19.91947477,2020/1/26,1,,1,0,0,1,0,0
陵水县,110.0444641,18.5123316,2020/1/26,1,,1,0,0,1,0,0
包头市东河区,110.0503948,40.58222804,2020/1/26,2,,3,0,0,5,0,0
锡林郭勒盟锡林浩特,116.0936139,43.9383338,2020/1/26,1,,0,0,0,1,0,0
鄂尔多斯东胜区,109.9695601,39.82798698,2020/1/26,1,,0,0,0,1,0,0
赤峰市松山区,118.9394139,42.29248157,2020/1/26,1,,4,0,0,8,0,0
呼伦贝尔满洲里,117.3854359,49.60409885,2020/1/26,1,,1,0,0,2,0,0
兴安盟乌兰浩特,122.0996224,46.07865434,2020/1/26,1,,1,0,0,1,0,0
通辽市经济开发区,122.2505218,43.65798008,2020/1/26,1,,0,0,0,1,0,0
锡林郭勒盟二连浩特,111.9583632,43.64880018,2020/1/26,1,,1,0,0,1,0,0
鄂尔多斯鄂托克前旗,107.4845847,38.18821674,2020/1/26,1,,1,0,0,1,0,0
呼伦贝尔牙克石,120.7183468,49.29202369,2020/1/26,1,,2,0,0,7,0,0
银川,106.2384936,38.49246006,2020/1/26,5,,2,0,0,5,0,0
中卫,105.2035709,37.50570142,2020/1/26,1,,3,0,0,3,0,0
固原,106.2485774,36.02161726,2020/1/26,1,,0,0,0,2,0,0
兰州,103.8405212,36.06723469,2020/1/26,8,,0,0,0,1,0,0
临夏,103.2163906,35.60756218,2020/1/26,2,,0,0,0,1,0,0
白银,104.1444508,36.55082533,2020/1/26,1,,0,0,0,1,0,0
定西,104.6324201,35.58683293,2020/1/26,1,,0,0,0,1,0,0
张掖,100.4564115,38.93206601,2020/1/26,1,,1,0,0,1,0,0
陇南,104.928575,33.40662023,2020/1/26,1,,1,0,0,14,0,0
河北区,117.2035928,39.15348514,2020/1/26,7,,4,0,0,8,0,0
河东区,117.258413,39.13448733,2020/1/26,5,,3,0,0,7,0,0
河西区,117.2294163,39.11571808,2020/1/26,3,,4,0,0,7,0,0
外地来津,90.93673264,29.04970447,2020/1/26,2,,1,0,0,6,0,0
滨海新区,117.7173988,39.00941577,2020/1/26,1,,1,0,0,6,0,0
和平区,121.150732,24.27955689,2020/1/26,1,,2,0,0,6,0,0
南开区,117.1565154,39.14410528,2020/1/26,1,,1,0,0,5,0,0
西青区,117.0144102,39.14872661,2020/1/26,1,,2,0,0,5,0,0
红桥区,117.1575179,39.17328565,2020/1/26,1,,2,0,0,5,0,0
万州区,108.4155584,30.81362164,2020/1/26,14,,1,0,0,4,0,0
云阳县,108.7034475,30.93661127,2020/1/26,8,,2,0,0,4,0,0
开州区,108.3994977,31.16664411,2020/1/26,7,,0,0,0,3,0,0
两江新区,106.5725816,29.68005454,2020/1/26,7,,0,0,0,3,0,0
长寿区,107.0875311,29.86352007,2020/1/26,6,,0,0,0,3,0,0
忠县,108.0445375,30.30526839,2020/1/26,6,,1,0,0,3,0,0
大渡口区,106.4885336,29.49010713,2020/1/26,6,,1,0,0,3,0,0
渝北区,106.6375591,29.72392734,2020/1/26,5,,1,0,0,3,0,0
巫山县,109.8855455,31.08051881,2020/1/26,5,,2,0,0,3,0,0
巫溪县,109.5764026,31.40488001,2020/1/26,5,,2,0,0,2,0,0
九龙坡区,106.5175587,29.50792772,2020/1/26,4,,2,0,0,2,0,0
垫江县,107.3395659,30.33329397,2020/1/26,4,,0,0,0,1,0,0
永川区,105.9334994,29.36204634,2020/1/26,3,,0,0,0,1,0,0
奉节县,109.4704728,31.02460177,2020/1/26,3,,0,0,0,1,0,0
石柱县,108.1204142,30.0061087,2020/1/26,3,,0,0,0,1,0,0
江北区,121.5604213,29.89294838,2020/1/26,3,,0,0,0,1,0,0
合川区,106.2825411,29.97818124,2020/1/26,3,,0,0,0,1,0,0
璧山区,106.2334746,29.59834661,2020/1/26,3,,1,0,0,1,0,0
丰都县,107.7374806,29.86941279,2020/1/26,3,,1,0,0,1,0,0
江津区,106.2655976,29.29588437,2020/1/26,2,,1,0,0,8,1,0
潼南区,105.847399,30.19731424,2020/1/26,2,,0,0,0,7,0,0
铜梁区,106.0634495,29.85050878,2020/1/26,1,,1,0,0,6,0,0
大足区,105.7284046,29.71311351,2020/1/26,1,,2,0,0,4,0,0
涪陵区,107.3964198,29.7092782,2020/1/26,1,,2,0,0,4,0,0
秀山县,109.0135739,28.45344786,2020/1/26,1,,3,0,0,4,0,0
梁平区,107.7760973,30.66055326,2020/1/26,1,,0,0,0,3,0,0
城口县,108.6716116,31.95339075,2020/1/26,1,,3,0,0,3,0,0
巴南区,106.5474543,29.40847474,2020/1/26,1,,1,0,0,2,0,0
綦江区,106.6574842,29.03411375,2020/1/26,1,,1,0,0,2,0,0
苏州,120.5924122,31.30356407,2020/1/26,8,,0,0,0,2,0,0
南京,118.8024217,32.06465289,2020/1/26,7,,0,0,0,1,0,0
常州,119.9814847,31.81579565,2020/1/26,6,,0,0,0,1,0,0
无锡,120.3185833,31.49880973,2020/1/26,4,,9,0,0,29,0,0
南通,120.9015917,31.98654943,2020/1/26,4,,1,0,0,23,0,0
扬州,119.4194189,32.40067694,2020/1/26,4,,4,0,0,19,0,1
连云港,119.2286213,34.60224953,2020/1/26,3,,6,0,0,11,0,0
徐州,117.2905754,34.21266655,2020/1/26,3,,2,0,0,9,0,0
淮安,119.0214837,33.6162953,2020/1/26,2,,4,0,0,7,0,0
泰州,119.9295663,32.46067505,2020/1/26,2,,6,0,0,6,0,0
镇江,119.4304894,32.19471592,2020/1/26,2,,6,0,0,6,0,0
盐城,120.1675443,33.35510092,2020/1/26,1,,3,0,0,5,0,0
宿迁,118.281574,33.96774972,2020/1/26,1,,1,0,0,4,0,0
郑州,113.6314192,34.75343885,2020/1/26,29,,1,0,0,3,0,0
信阳,114.0974828,32.15301455,2020/1/26,23,,1,0,0,2,0,0
南阳,112.5345013,32.9965622,2020/1/26,19,,2,0,0,2,0,0
周口,114.7034825,33.63182888,2020/1/26,11,,1,0,0,1,0,0
驻马店,114.0284708,33.01784242,2020/1/26,9,,1,0,0,1,0,0
安阳市,114.3995004,36.10594098,2020/1/26,7,,4,0,0,22,0,0
漯河,114.0234208,33.58771071,2020/1/26,6,,5,0,0,12,0,0
商丘,115.6624493,34.42020167,2020/1/26,6,,3,0,0,11,0,0
平顶山,113.1995286,33.77205075,2020/1/26,5,,6,0,0,8,0,0
新乡,113.9336005,35.30963993,2020/1/26,4,,1,0,0,7,0,0
三门峡,111.2065332,34.77832725,2020/1/26,3,,2,0,0,7,0,0
洛阳,112.4594213,34.62426278,2020/1/26,2,,3,0,0,7,0,0
鹤壁市,114.3035936,35.75235741,2020/1/26,2,,3,0,0,6,0,0
开封,114.3145926,34.80288581,2020/1/26,1,,2,0,0,5,0,0
许昌,113.8584755,34.04143161,2020/1/26,1,,0,0,0,4,0,0
长沙,112.9454732,28.2348894,2020/1/26,22,,1,0,0,4,0,0
常德,111.7054522,29.03775,2020/1/26,12,,1,0,0,4,0,0
怀化,110.0085143,27.5751609,2020/1/26,11,,0,0,0,2,0,0
邵阳,111.4744329,27.24527027,2020/1/26,8,,0,0,0,2,0,0
岳阳,113.1354894,29.36317829,2020/1/26,7,,0,0,0,2,0,0
娄底,112.0015035,27.7032086,2020/1/26,7,,2,0,0,2,0,0
益阳,112.361516,28.55971118,2020/1/26,7,,0,0,0,1,0,0
郴州,113.0214605,25.77668327,2020/1/26,6,,0,0,0,1,0,0
株洲,113.1404708,27.83356764,2020/1/26,5,,0,0,0,1,0,0
永州,111.6194551,26.42586412,2020/1/26,4,,1,0,0,1,0,0
湘潭,112.9504642,27.83570223,2020/1/26,4,,1,0,0,1,0,0
衡阳,112.5784472,26.89957614,2020/1/26,4,,2,0,0,7,0,0
晋中,112.7595948,37.69283941,2020/1/26,2,,0,0,0,3,0,0
太原,112.5563915,37.87698903,2020/1/26,2,,0,0,0,2,0,1
运城,111.0133895,35.03270691,2020/1/26,2,,0,0,0,2,0,0
朔州,112.4393709,39.33710837,2020/1/26,2,,2,0,0,2,0,0
阳泉,113.5876167,37.86236085,2020/1/26,1,,0,0,0,1,0,0
大同,113.3064363,40.08246872,2020/1/26,1,,1,0,0,1,0,0
长治,113.1225589,36.20126837,2020/1/26,1,,0,0,0,2,0,0
临汾,111.5255302,36.0937419,2020/1/26,1,,1,0,0,2,0,0
吕梁,111.1504497,37.52449775,2020/1/26,1,,0,0,0,1,0,0
石家庄,114.5215319,38.04831193,2020/1/26,7,,1,0,0,1,0,0
保定,115.4714638,38.87998777,2020/1/26,3,,4,0,0,8,0,0
沧州,116.8455808,38.31021514,2020/1/26,2,,0,0,0,7,0,0
邯郸市,114.5456282,36.63126273,2020/1/26,2,,1,0,0,7,0,0
廊坊,116.6905817,39.54336666,2020/1/26,2,,0,0,0,6,0,0
承德,117.9693975,40.95785601,2020/1/26,1,,1,0,0,6,0,0
邢台,114.5114623,37.07668595,2020/1/26,1,,2,0,0,4,0,0
吉林,126.5556345,43.84356783,2020/1/26,2,,1,0,0,3,0,0
松原,124.8314819,45.14740419,2020/1/26,2,,2,0,0,3,0,0
长春,125.3306021,43.8219535,2020/1/26,1,,0,0,0,2,0,0
四平,124.3564816,43.17199357,2020/1/26,1,,1,0,0,2,0,0
南昌,115.8645894,28.6894553,2020/1/26,8,,1,0,0,4,0,0
赣州,114.9405034,25.8351761,2020/1/26,7,,0,0,0,13,0,0
抚州,116.3645388,27.95489225,2020/1/26,7,,0,0,0,10,0,0
上饶,117.9494596,28.46062592,2020/1/26,6,,3,0,0,8,0,0
宜春,114.4235637,27.82085642,2020/1/26,6,,0,0,0,7,0,0
九江,116.0075349,29.71134056,2020/1/26,4,,0,0,0,6,0,0
吉安,115.0005107,27.11972683,2020/1/26,3,,3,0,0,6,0,0
新余,114.9235347,27.8235787,2020/1/26,3,,0,0,0,3,0,0
萍乡,113.8614964,27.62839271,2020/1/26,2,,0,0,0,3,0,0
景德镇,117.1845764,29.27424771,2020/1/26,2,,1,0,0,3,0,0
乌鲁木齐,87.62443994,43.8307632,2020/1/26,4,,2,0,0,3,0,0
合肥,117.2334427,31.82657783,2020/1/26,13,,0,0,0,2,0,0
阜阳,115.8204361,32.89606099,2020/1/26,10,,1,0,0,2,0,0
安庆,117.0636039,30.53095657,2020/1/26,8,,0,0,0,1,0,0
马鞍山,118.5135796,31.6762656,2020/1/26,7,,0,0,0,1,0,0
亳州,115.7844632,33.8506427,2020/1/26,6,,0,0,0,1,0,0
芜湖,118.4394314,31.35853666,2020/1/26,6,,0,0,0,1,0,0
六安,116.5264097,31.74145082,2020/1/26,3,,4,0,0,17,0,0
铜陵,117.8184768,30.95123324,2020/1/26,3,,5,0,0,10,0,0
宿州,116.9705439,33.65209533,2020/1/26,3,,8,0,0,9,0,0
蚌埠,117.3955133,32.9215237,2020/1/26,3,,3,0,0,6,0,0
滁州,118.3394061,32.26127087,2020/1/26,2,,0,0,0,4,0,0
淮南,117.0063889,32.6318474,2020/1/26,2,,0,0,0,4,0,0
池州,117.498421,30.67088379,2020/1/26,1,,0,0,0,4,0,0
宣城,118.7655342,30.94660155,2020/1/26,1,,1,0,0,2,0,0
淮北,116.8045373,33.9616563,2020/1/26,1,,3,0,0,4,0,0
黄山,118.3454373,29.72188979,2020/1/26,1,,892,5,22,1590,47,85
福州,119.3034698,26.08042942,2020/1/26,17,,59,-2,0,213,2,4
泉州,118.6824463,24.87995233,2020/1/26,10,,73,0,0,173,0,1
莆田,119.014521,25.45986546,2020/1/26,9,,24,0,0,114,0,3
宁德,119.5545107,26.67224171,2020/1/26,6,,27,0,0,91,0,0
厦门,118.0964355,24.48540661,2020/1/26,4,,24,0,0,71,1,2
漳州,117.6535765,24.51892979,2020/1/26,4,,18,0,0,70,0,0
三明,117.6455212,26.26973652,2020/1/26,4,,34,0,0,70,0,0
南平,118.1843695,26.64777287,2020/1/26,2,,25,0,0,65,0,0
西宁,101.7844502,36.6233847,2020/1/26,4,,37,0,0,57,0,0
淄博市,118.0614525,36.81908568,2020/1/26,0,,17,0,0,53,0,1
锡林郭勒盟,116.0543914,43.93942267,2020/1/26,0,,20,0,0,51,0,1
鄂尔多斯,109.7874432,39.61448231,2020/1/26,0,,13,0,0,38,0,0
满洲里,117.3854359,49.60409885,2020/1/26,0,,15,0,0,27,0,0
赤峰,118.8955204,42.2616861,2020/1/26,0,,10,0,2,23,0,2
呼伦贝尔牙克石市,120.7183468,49.29202369,2020/1/26,0,,2,0,0,7,0,1
白银市,104.1444508,36.55082533,2020/1/26,0,,1,0,0,1,0,0
漯河市,114.0234208,33.58771071,2020/1/26,0,,21,2,0,57,4,0
武汉,114.3115816,30.59846674,2020/1/27,1590,,10,0,0,51,0,0
黄冈,114.8784905,30.45935886,2020/1/27,213,,4,0,0,18,0,0
孝感,113.9225101,30.93068923,2020/1/27,173,,0,0,0,12,0,0
荆门,112.206393,31.04173258,2020/1/27,114,,3,0,0,11,0,0
咸宁,114.3285191,29.84705595,2020/1/27,91,,1,0,0,9,0,0
荆州,112.2455226,30.34084211,2020/1/27,71,,2,0,0,7,0,0
随州,113.38945,31.69651677,2020/1/27,70,,5,0,0,7,0,0
襄阳,112.1285372,32.0147968,2020/1/27,70,,1,0,0,6,0,0
十堰,110.8045296,32.63506186,2020/1/27,65,,3,0,0,6,0,0
鄂州,114.9016074,30.39657217,2020/1/27,57,,3,0,0,5,0,0
黄石,115.0455329,30.20520785,2020/1/27,53,,0,0,0,4,0,0
宜昌,111.2925492,30.69744648,2020/1/27,51,,0,0,0,4,0,0
恩施州,109.4945926,30.27793958,2020/1/27,38,,1,0,0,4,0,0
仙桃,113.4496094,30.33358775,2020/1/27,27,,1,0,0,4,0,0
天门,113.1724092,30.66962183,2020/1/27,23,,0,0,0,1,0,0
潜江,112.9054741,30.40835793,2020/1/27,7,,1,0,0,1,0,0
神农架林区,110.6825249,31.75049601,2020/1/27,1,,10,0,0,33,3,0
深圳,114.0645518,22.54845664,2020/1/27,57,,2,0,0,9,0,0
广州,113.2714313,23.13533631,2020/1/27,51,,0,0,0,5,0,0
佛山,113.1285122,23.02775875,2020/1/27,18,,0,0,0,5,0,0
珠海,113.5825548,22.27656465,2020/1/27,12,,0,0,0,3,0,0
惠州,114.423558,23.11635885,2020/1/27,11,,0,0,0,2,0,0
阳江,111.9884893,21.86433973,2020/1/27,9,,0,0,0,2,0,0
湛江,110.3655544,21.27672344,2020/1/27,7,,0,0,0,2,0,0
东莞,113.7584205,23.02730841,2020/1/27,7,,1,0,0,2,0,0
中山,113.3994224,22.52231467,2020/1/27,6,,0,0,0,1,0,0
清远,113.0624683,23.68823029,2020/1/27,6,,0,0,0,1,0,0
汕头,116.6885286,23.35909172,2020/1/27,5,,0,0,0,1,0,0
韶关,113.6035273,24.81588128,2020/1/27,4,,2,0,0,10,0,0
肇庆,112.4714889,23.05288877,2020/1/27,4,,5,0,0,8,0,1
揭阳,116.3785122,23.55574049,2020/1/27,4,,0,0,0,5,0,0
梅州,116.1295374,24.29417753,2020/1/27,4,,1,0,0,2,0,0
汕尾,115.3815526,22.79126304,2020/1/27,1,,1,0,0,2,0,0
河源,114.7074463,23.74968437,2020/1/27,1,,0,0,0,1,0,0
外地来沪人员,117.0233851,25.99602656,2020/1/27,33,,0,0,0,1,0,0
浦东新区,121.5504546,31.22734829,2020/1/27,9,,0,0,0,1,0,0
长宁区,121.4304544,31.22684797,2020/1/27,5,,4,0,0,21,0,0
静安区,121.4534318,31.23384493,2020/1/27,5,,6,0,0,17,0,0
徐汇区,121.4433964,31.19455677,2020/1/27,3,,0,0,0,11,0,0
虹口区,121.5115865,31.2697467,2020/1/27,2,,1,0,0,8,0,0
闵行区,121.3886119,31.11884258,2020/1/27,2,,0,0,0,7,0,0
青浦区,121.1305531,31.15545432,2020/1/27,2,,1,0,0,7,0,0
黄浦区,121.4915856,31.23724715,2020/1/27,2,,3,0,0,7,0,0
宝山区,121.496563,31.41027947,2020/1/27,1,,2,0,0,7,2,0
嘉定区,121.2725951,31.38015534,2020/1/27,1,,0,0,0,2,0,0
奉贤区,121.4805037,30.92372011,2020/1/27,1,,1,0,0,2,0,0
哈尔滨,126.5416151,45.80882583,2020/1/27,10,,1,0,0,2,0,0
绥化,126.9753569,46.66003218,2020/1/27,8,,3,0,0,15,0,0
大庆,125.1086576,46.59363318,2020/1/27,5,,1,0,0,8,0,0
齐齐哈尔,123.9245709,47.35997719,2020/1/27,2,,0,0,0,5,0,0
七台河,131.0115446,45.77630032,2020/1/27,2,,0,0,0,4,0,0
牡丹江,129.6395398,44.55624571,2020/1/27,1,,1,0,0,4,0,0
佳木斯,130.3273591,46.80568999,2020/1/27,1,,2,0,0,3,0,0
双鸭山,131.1653417,46.6531859,2020/1/27,1,,3,0,0,3,0,0
海淀,116.3054341,39.96548984,2020/1/27,21,,0,0,0,2,0,0
朝阳,120.4574995,41.57982086,2020/1/27,17,,1,0,0,2,0,0
外地来京人员,117.0233851,25.99602656,2020/1/27,11,,4,0,0,37,0,0
西城,116.3725136,39.91812361,2020/1/27,8,,1,0,0,8,0,0
昌平,116.2376179,40.22641337,2020/1/27,7,,1,0,0,7,0,0
通州,121.0814255,32.07035574,2020/1/27,7,,5,0,0,7,0,0
丰台,116.2924019,39.8649372,2020/1/27,7,,1,0,0,4,0,0
大兴,116.3486252,39.73255524,2020/1/27,7,,2,0,0,4,0,0
石景山,116.2296127,39.91135381,2020/1/27,2,,1,0,0,3,0,0
顺义,116.6614243,40.13635076,2020/1/27,2,,0,0,0,3,0,0
东城,116.422401,39.93482727,2020/1/27,2,,2,0,0,3,0,0
西安,108.9464656,34.34726882,2020/1/27,15,,1,0,0,3,0,0
安康,109.0356011,32.69051277,2020/1/27,8,,1,0,0,2,0,0
铜川,108.9524042,34.90263708,2020/1/27,5,,1,0,0,2,0,0
咸阳,108.7154225,34.33547629,2020/1/27,4,,2,0,0,2,0,0
汉中,107.0294302,33.07379991,2020/1/27,4,,0,0,0,2,0,0
渭南,109.5165896,34.50571552,2020/1/27,3,,0,0,0,1,0,0
宝鸡,107.2445754,34.36891564,2020/1/27,3,,0,0,0,1,0,0
延安,109.4965819,36.59111104,2020/1/27,2,,0,0,0,1,0,0
商洛,109.9244179,33.87863385,2020/1/27,2,,1,0,0,8,0,0
成都,104.0815335,30.65582188,2020/1/27,37,,0,0,0,5,0,0
绵阳,104.6855619,31.47366305,2020/1/27,8,,1,0,0,5,0,0
广安,106.6395527,30.46174611,2020/1/27,7,,4,0,0,4,0,0
自贡,104.7844488,29.34558492,2020/1/27,7,,0,0,0,2,0,0
泸州,105.4485241,28.8776683,2020/1/27,4,,0,0,0,2,0,0
南充,106.1175026,30.84378251,2020/1/27,4,,0,0,0,2,0,0
遂宁,105.5994215,30.53909767,2020/1/27,3,,0,0,0,2,0,0
达州,107.4745939,31.21430772,2020/1/27,3,,0,0,0,2,0,0
内江,105.064588,29.58588654,2020/1/27,3,,0,0,0,1,0,0
甘孜州,101.9685467,30.05527884,2020/1/27,3,,1,0,0,1,0,0
雅安,103.0495426,30.01679255,2020/1/27,2,,2,0,0,4,0,0
乐山,103.7725376,29.55794072,2020/1/27,2,,0,0,0,2,0,0
凉山,102.2735027,27.8877523,2020/1/27,2,,0,0,0,1,0,0
资阳,104.6344353,30.13495656,2020/1/27,2,,0,0,0,1,0,0
德阳,104.4044194,31.133115,2020/1/27,1,,0,0,0,1,0,0
眉山,103.8565633,30.08252612,2020/1/27,1,,1,0,0,15,0,0
宜宾,104.6494037,28.75800703,2020/1/27,1,,2,0,0,11,0,0
沈阳,123.4710966,41.68383007,2020/1/27,8,,0,0,0,6,0,0
大连,121.6216315,38.91895367,2020/1/27,5,,0,0,0,5,0,0
丹东,124.3615473,40.00640871,2020/1/27,5,,2,1,0,4,1,0
锦州,121.1325963,41.1009315,2020/1/27,4,,0,0,0,3,0,0
朝阳,120.4574995,41.57982086,2020/1/27,2,,0,1,0,3,1,0
铁岭,123.7323652,42.229948,2020/1/27,2,,0,0,0,2,0,0
葫芦岛,120.8433983,40.71736444,2020/1/27,2,,0,0,0,2,0,0
本溪,123.6925071,41.49291646,2020/1/27,2,,28,2,0,60,3,0
盘锦,122.0774901,41.12587529,2020/1/27,2,,5,0,0,32,0,0
营口,122.2415747,40.67313684,2020/1/27,1,,0,0,0,22,0,0
辽阳,123.2433664,41.27416129,2020/1/27,1,,4,0,0,17,0,0
黔南州,107.5284027,26.2606162,2020/1/27,4,,3,0,0,11,0,0
铜仁,109.1964389,27.73778646,2020/1/27,2,,1,0,0,7,0,0
贵阳,106.6365768,26.65332482,2020/1/27,1,,2,0,0,7,0,0
黔西南州,104.9124921,25.09396735,2020/1/27,1,,0,0,0,5,0,0
六盘水,104.8375546,26.59883311,2020/1/27,1,,2,0,0,5,0,0
桂林,110.2035454,25.24288572,2020/1/27,15,,0,0,0,4,0,0
北海,109.1265332,21.4868365,2020/1/27,11,,0,0,0,3,0,0
柳州,109.4344219,24.33196139,2020/1/27,6,,2,-1,0,15,0,0
南宁,108.3734508,22.8226066,2020/1/27,5,,1,0,0,10,0,0
梧州,111.2855168,23.48274528,2020/1/27,4,,3,0,0,10,0,0
河池,108.0914999,24.69891173,2020/1/27,3,,2,0,0,10,0,0
防城港,108.3604188,21.69300529,2020/1/27,3,,1,0,0,8,0,0
百色,106.6245893,23.90818593,2020/1/27,2,,2,0,0,8,0,0
玉林,110.1884531,22.65983051,2020/1/27,2,,1,0,0,6,0,0
温州,120.7064769,28.0010854,2020/1/27,60,,0,0,0,5,0,0
杭州,120.2155118,30.25308298,2020/1/27,32,,1,0,0,5,0,0
台州,121.4274347,28.66219406,2020/1/27,22,,3,0,0,5,0,0
宁波,121.6285725,29.86603305,2020/1/27,17,,1,0,0,4,0,0
嘉兴,120.7635518,30.75097483,2020/1/27,11,,0,0,0,3,0,0
绍兴,120.5854785,30.03636931,2020/1/27,7,,2,0,0,3,0,0
金华,119.6534362,29.08463939,2020/1/27,7,,0,0,0,2,0,0
衢州,118.8665967,28.9755458,2020/1/27,5,,1,0,0,1,0,0
丽水,119.9295731,28.47327818,2020/1/27,5,,5,0,0,12,0,0
舟山,122.2135563,29.99091168,2020/1/27,4,,1,0,0,6,0,0
湖州,120.0945166,30.89896394,2020/1/27,3,,5,0,0,6,0,0
青岛,120.3894552,36.0722275,2020/1/27,15,,4,0,0,5,0,0
威海,122.127541,37.51643055,2020/1/27,10,,1,0,0,4,0,0
济南,117.1263994,36.6565542,2020/1/27,10,,1,0,0,3,0,0
烟台,121.4544154,37.47003838,2020/1/27,10,,0,0,0,2,0,0
临沂,118.363533,35.11067124,2020/1/27,8,,0,0,0,2,0,0
德州,116.3655567,37.44130845,2020/1/27,8,,1,0,0,2,0,0
日照,119.5334154,35.422839,2020/1/27,6,,0,0,0,2,0,0
济宁,116.5936123,35.42017739,2020/1/27,5,,3,0,0,14,0,0
菏泽,115.487545,35.23940742,2020/1/27,5,,1,0,0,7,0,0
枣庄,117.3305419,34.81599405,2020/1/27,5,,0,0,0,7,0,0
滨州,117.977404,37.3881962,2020/1/27,4,,0,0,0,5,0,0
潍坊,119.1683779,36.71265155,2020/1/27,3,,0,0,1,2,0,1
聊城,115.9915878,36.46275819,2020/1/27,3,,0,0,0,1,0,0
淄博,118.0614525,36.81908568,2020/1/27,2,,0,0,0,1,0,0
泰安,117.0944948,36.20585804,2020/1/27,1,,1,0,0,1,0,0
昆明,102.8524484,24.87399815,2020/1/27,12,,1,0,0,1,0,0
丽江,100.2324645,26.86065744,2020/1/27,6,,1,0,0,1,0,0
西双版纳,100.8034468,22.01360125,2020/1/27,6,,3,0,0,3,0,0
玉溪,102.5535603,24.35771094,2020/1/27,5,,2,0,0,2,0,0
保山,99.17727329,25.13903879,2020/1/27,4,,2,0,0,2,0,0
大理,100.2745828,25.61212842,2020/1/27,3,,2,0,0,2,0,0
曲靖,103.8024348,25.49640693,2020/1/27,2,,2,0,0,2,0,0
红河,103.3815491,23.36999625,2020/1/27,2,,2,0,0,2,0,0
昭通,103.7235118,27.34408386,2020/1/27,2,,1,0,0,1,0,0
德宏,98.59135936,24.4380107,2020/1/27,2,,1,0,0,1,0,0
三亚,109.5185567,18.25873629,2020/1/27,14,,2,0,0,7,0,0
海口,110.3255255,20.04404944,2020/1/27,7,,2,0,0,2,0,0
万宁,110.3994344,18.80010699,2020/1/27,7,,0,0,0,1,0,0
儋州,109.5874558,19.52714611,2020/1/27,5,,0,0,0,1,0,0
澄迈县,110.0135109,19.74434867,2020/1/27,2,,3,0,0,11,0,0
临高县,109.697443,19.91947477,2020/1/27,1,,0,0,0,2,0,0
陵水县,110.0444641,18.5123316,2020/1/27,1,,0,0,0,1,0,0
琼海市,110.4805445,19.26425402,2020/1/27,1,,0,0,0,1,0,0
东方市,108.6585665,19.10110473,2020/1/27,1,,0,0,0,1,0,0
琼中县,109.8445106,19.03916379,2020/1/27,1,,0,0,0,1,0,0
包头,109.8465435,40.66292879,2020/1/27,3,,1,0,0,1,0,0
呼和浩特,111.7555086,40.848423,2020/1/27,2,,1,0,0,1,0,0
呼伦贝尔,119.7723705,49.21844648,2020/1/27,2,,0,0,0,7,0,0
锡林郭勒盟,116.0543914,43.93942267,2020/1/27,2,,1,0,0,6,0,0
鄂尔多斯,109.7874432,39.61448231,2020/1/27,2,,0,0,0,3,0,0
赤峰,118.8955204,42.2616861,2020/1/27,2,,1,0,0,2,0,0
兴安盟,122.0443645,46.08846371,2020/1/27,1,,0,0,0,2,0,0
通辽,122.2505218,43.65798008,2020/1/27,1,,0,0,0,1,0,0
银川,106.2384936,38.49246006,2020/1/27,7,,0,0,0,1,0,0
吴忠,106.2053713,38.00371291,2020/1/27,2,,0,0,0,1,0,0
中卫,105.2035709,37.50570142,2020/1/27,1,,0,0,0,1,0,0
固原,106.2485774,36.02161726,2020/1/27,1,,1,0,0,15,0,0
兰州,103.8405212,36.06723469,2020/1/27,11,,2,0,0,10,0,0
临夏,103.2163906,35.60756218,2020/1/27,2,,2,0,0,9,0,0
白银,104.1444508,36.55082533,2020/1/27,1,,3,0,0,9,0,0
定西,104.6324201,35.58683293,2020/1/27,1,,1,0,0,8,0,0
张掖,100.4564115,38.93206601,2020/1/27,1,,1,0,0,7,0,0
陇南,104.928575,33.40662023,2020/1/27,1,,0,0,0,6,0,0
金昌,102.1946057,38.52582009,2020/1/27,1,,1,0,0,6,0,0
天水,105.7314167,34.58741188,2020/1/27,1,,3,0,0,6,0,0
河北区,117.2035928,39.15348514,2020/1/27,7,,1,0,0,5,0,0
河东区,117.258413,39.13448733,2020/1/27,6,,1,0,0,5,0,0
河西区,117.2294163,39.11571808,2020/1/27,3,,0,0,0,5,0,0
西青区,117.0144102,39.14872661,2020/1/27,2,,0,0,0,5,0,0
外地来津,90.93673264,29.04970447,2020/1/27,2,,1,0,0,4,0,0
滨海新区,117.7173988,39.00941577,2020/1/27,1,,1,0,0,4,0,0
和平区,121.150732,24.27955689,2020/1/27,1,,0,0,0,3,0,0
南开区,117.1565154,39.14410528,2020/1/27,1,,0,0,0,3,0,0
红桥区,117.1575179,39.17328565,2020/1/27,1,,0,0,0,3,0,0
万州区,108.4155584,30.81362164,2020/1/27,15,,0,0,0,3,0,0
云阳县,108.7034475,30.93661127,2020/1/27,10,,0,0,0,2,0,0
开州区,108.3994977,31.16664411,2020/1/27,9,,1,0,0,2,0,0
忠县,108.0445375,30.30526839,2020/1/27,9,,1,0,0,2,0,0
两江新区,106.5725816,29.68005454,2020/1/27,8,,0,0,0,2,0,0
长寿区,107.0875311,29.86352007,2020/1/27,7,,0,0,0,1,0,0
大渡口区,106.4885336,29.49010713,2020/1/27,6,,0,0,0,1,0,0
渝北区,106.6375591,29.72392734,2020/1/27,6,,0,0,0,1,0,0
石柱县,108.1204142,30.0061087,2020/1/27,6,,0,0,0,1,0,0
九龙坡区,106.5175587,29.50792772,2020/1/27,5,,0,0,0,1,0,0
垫江县,107.3395659,30.33329397,2020/1/27,5,,0,0,0,1,0,0
巫山县,109.8855455,31.08051881,2020/1/27,5,,1,0,0,1,0,0
巫溪县,109.5764026,31.40488001,2020/1/27,5,,4,0,0,12,1,0
江北区,121.5604213,29.89294838,2020/1/27,4,,3,0,0,10,0,0
合川区,106.2825411,29.97818124,2020/1/27,4,,2,0,0,8,0,0
永川区,105.9334994,29.36204634,2020/1/27,3,,5,0,0,8,0,0
璧山区,106.2334746,29.59834661,2020/1/27,3,,2,0,0,6,0,0
丰都县,107.7374806,29.86941279,2020/1/27,3,,2,0,0,6,0,0
奉节县,109.4704728,31.02460177,2020/1/27,3,,1,0,0,5,0,0
江津区,106.2655976,29.29588437,2020/1/27,2,,2,0,0,4,0,0
綦江区,106.6574842,29.03411375,2020/1/27,2,,0,0,0,3,0,0
铜梁区,106.0634495,29.85050878,2020/1/27,2,,2,0,0,3,0,0
潼南区,105.847399,30.19731424,2020/1/27,2,,0,0,0,2,0,0
涪陵区,107.3964198,29.7092782,2020/1/27,1,,0,0,0,2,0,0
巴南区,106.5474543,29.40847474,2020/1/27,1,,0,0,0,1,0,0
大足区,105.7284046,29.71311351,2020/1/27,1,,8,0,0,37,0,0
梁平区,107.7760973,30.66055326,2020/1/27,1,,6,0,0,29,0,0
城口县,108.6716116,31.95339075,2020/1/27,1,,7,0,0,26,0,1
秀山县,109.0135739,28.45344786,2020/1/27,1,,4,0,0,15,0,0
黔江区,108.7775912,29.53881257,2020/1/27,1,,11,0,0,11,0,0
苏州,120.5924122,31.30356407,2020/1/27,12,,1,0,0,10,0,0
南京,118.8024217,32.06465289,2020/1/27,10,,3,0,0,9,0,0
常州,119.9814847,31.81579565,2020/1/27,8,,1,0,0,7,0,0
徐州,117.2905754,34.21266655,2020/1/27,8,,2,0,0,6,0,0
无锡,120.3185833,31.49880973,2020/1/27,6,,0,0,0,5,0,0
南通,120.9015917,31.98654943,2020/1/27,6,,0,0,0,3,0,0
扬州,119.4194189,32.40067694,2020/1/27,5,,0,0,0,2,0,0
泰州,119.9295663,32.46067505,2020/1/27,4,,1,0,0,2,0,0
连云港,119.2286213,34.60224953,2020/1/27,3,,2,0,0,2,0,0
宿迁,118.281574,33.96774972,2020/1/27,3,,1,0,0,2,0,0
镇江,119.4304894,32.19471592,2020/1/27,2,,2,0,0,2,0,0
淮安,119.0214837,33.6162953,2020/1/27,2,,2,0,0,24,0,0
盐城,120.1675443,33.35510092,2020/1/27,1,,7,0,0,19,0,0
郑州,113.6314192,34.75343885,2020/1/27,37,,10,0,0,17,0,0
信阳,114.0974828,32.15301455,2020/1/27,29,,5,0,0,16,0,0
南阳,112.5345013,32.9965622,2020/1/27,26,,3,0,0,11,0,0
周口,114.7034825,33.63182888,2020/1/27,15,,3,0,0,10,0,0
安阳,114.3995004,36.10594098,2020/1/27,11,,2,0,0,9,0,0
驻马店,114.0284708,33.01784242,2020/1/27,10,,2,0,0,7,0,0
漯河,114.0234208,33.58771071,2020/1/27,9,,1,0,0,7,0,0
商丘,115.6624493,34.42020167,2020/1/27,7,,3,0,0,7,0,0
新乡,113.9336005,35.30963993,2020/1/27,6,,3,0,0,7,0,0
平顶山,113.1995286,33.77205075,2020/1/27,5,,2,0,0,6,0,0
三门峡,111.2065332,34.77832725,2020/1/27,3,,3,0,0,5,0,0
洛阳,112.4594213,34.62426278,2020/1/27,2,,1,0,0,3,0,0
开封,114.3145926,34.80288581,2020/1/27,2,,1,0,0,3,0,0
鹤壁,114.3035936,35.75235741,2020/1/27,2,,2,0,0,3,0,0
许昌,113.8584755,34.04143161,2020/1/27,2,,0,0,0,2,0,0
焦作,113.2485478,35.22096325,2020/1/27,2,,0,0,0,1,0,0
长沙,112.9454732,28.2348894,2020/1/27,24,,0,0,0,1,0,0
常德,111.7054522,29.03775,2020/1/27,19,,0,0,0,1,0,0
岳阳,113.1354894,29.36317829,2020/1/27,17,,0,0,0,1,0,0
怀化,110.0085143,27.5751609,2020/1/27,16,,2,0,0,9,0,0
邵阳,111.4744329,27.24527027,2020/1/27,11,,4,0,0,6,0,0
益阳,112.361516,28.55971118,2020/1/27,10,,3,0,0,5,0,1
娄底,112.0015035,27.7032086,2020/1/27,9,,4,0,0,4,0,0
株洲,113.1404708,27.83356764,2020/1/27,7,,0,0,0,3,0,0
郴州,113.0214605,25.77668327,2020/1/27,7,,1,0,0,2,0,0
永州,111.6194551,26.42586412,2020/1/27,7,,2,0,0,2,0,0
衡阳,112.5784472,26.89957614,2020/1/27,7,,0,0,0,1,0,0
湘潭,112.9504642,27.83570223,2020/1/27,6,,1,0,0,1,0,0
晋中,112.7595948,37.69283941,2020/1/27,5,,1,0,0,3,0,0
太原,112.5563915,37.87698903,2020/1/27,3,,0,0,0,2,0,0
运城,111.0133895,35.03270691,2020/1/27,3,,0,0,0,1,0,0
吕梁,111.1504497,37.52449775,2020/1/27,3,,0,0,0,1,0,0
朔州,112.4393709,39.33710837,2020/1/27,2,,1,0,0,1,0,0
阳泉,113.5876167,37.86236085,2020/1/27,1,,9,0,0,17,0,0
大同,113.3064363,40.08246872,2020/1/27,1,,3,0,0,10,0,0
长治,113.1225589,36.20126837,2020/1/27,1,,4,0,0,10,0,0
临汾,111.5255302,36.0937419,2020/1/27,1,,5,0,0,9,0,0
石家庄,114.5215319,38.04831193,2020/1/27,9,,1,0,0,8,0,0
廊坊,116.6905817,39.54336666,2020/1/27,6,,1,0,0,7,0,0
沧州,116.8455808,38.31021514,2020/1/27,5,,0,1,0,3,1,0
邯郸,114.5456282,36.63126273,2020/1/27,4,,0,1,0,3,1,0
保定,115.4714638,38.87998777,2020/1/27,3,,0,1,0,2,1,0
邢台,114.5114623,37.07668595,2020/1/27,2,,0,0,0,2,0,0
衡水,115.6754061,37.74519141,2020/1/27,2,,1,0,0,1,0,0
承德,117.9693975,40.95785601,2020/1/27,1,,1,0,0,5,0,0
唐山,118.1864595,39.63658372,2020/1/27,1,,1,0,0,1,0,0
吉林,126.5556345,43.84356783,2020/1/27,3,,1,0,0,1,0,0
松原,124.8314819,45.14740419,2020/1/27,2,,1,0,0,1,0,0
长春,125.3306021,43.8219535,2020/1/27,1,,11,0,0,21,0,0
四平,124.3564816,43.17199357,2020/1/27,1,,3,0,0,16,0,0
公主岭,124.8294487,43.51083266,2020/1/27,1,,3,0,0,10,0,0
南昌,115.8645894,28.6894553,2020/1/27,17,,6,0,0,9,0,0
赣州,114.9405034,25.8351761,2020/1/27,10,,3,0,0,9,0,0
宜春,114.4235637,27.82085642,2020/1/27,10,,2,0,0,8,0,0
九江,116.0075349,29.71134056,2020/1/27,9,,0,0,0,8,0,0
抚州,116.3645388,27.95489225,2020/1/27,8,,1,0,0,4,0,0
上饶,117.9494596,28.46062592,2020/1/27,7,,2,0,0,4,0,0
新余,114.9235347,27.8235787,2020/1/27,3,,3,0,0,4,0,0
吉安,115.0005107,27.11972683,2020/1/27,3,,0,0,0,3,0,0
萍乡,113.8614964,27.62839271,2020/1/27,2,,0,0,0,3,0,0
景德镇,117.1845764,29.27424771,2020/1/27,2,,1,0,0,2,0,0
鹰潭,117.0755754,28.26578706,2020/1/27,1,,1,0,0,2,0,0
乌鲁木齐,87.62443994,43.8307632,2020/1/27,5,,0,0,0,2,0,0
吐鲁番市,89.19729725,42.95698485,2020/1/27,1,,0,0,0,1,0,0
第七师,113.3045127,23.083274,2020/1/27,1,,7,0,0,24,0,0
第八师石河子市,118.7724304,32.24015401,2020/1/27,1,,5,0,0,14,0,0
阜阳,115.8204361,32.89606099,2020/1/27,21,,3,0,0,13,0,0
合肥,117.2334427,31.82657783,2020/1/27,16,,4,0,0,8,0,0
马鞍山,118.5135796,31.6762656,2020/1/27,10,,2,0,0,6,0,0
铜陵,117.8184768,30.95123324,2020/1/27,9,,0,0,0,6,0,0
芜湖,118.4394314,31.35853666,2020/1/27,9,,1,0,0,5,0,0
亳州,115.7844632,33.8506427,2020/1/27,8,,1,0,0,3,0,0
安庆,117.0636039,30.53095657,2020/1/27,8,,1,0,0,1,0,0
六安,116.5264097,31.74145082,2020/1/27,4,,2,0,0,6,0,0
滁州,118.3394061,32.26127087,2020/1/27,4,,315,7,19,1905,54,104
黄山,118.3454373,29.72188979,2020/1/27,4,,111,0,1,324,2,5
蚌埠,117.3955133,32.9215237,2020/1/27,3,,101,0,2,274,0,3
宿州,116.9705439,33.65209533,2020/1/27,3,,28,0,1,142,0,4
宣城,118.7655342,30.94660155,2020/1/27,2,,61,0,0,131,0,0
淮北,116.8045373,33.9616563,2020/1/27,2,,46,0,0,116,0,0
淮南,117.0063889,32.6318474,2020/1/27,2,,21,0,0,112,0,0
池州,117.498421,30.67088379,2020/1/27,1,,30,0,0,101,1,2
福州,119.3034698,26.08042942,2020/1/27,24,,23,0,0,88,0,0
莆田,119.014521,25.45986546,2020/1/27,14,,33,0,0,86,0,1
泉州,118.6824463,24.87995233,2020/1/27,13,,27,0,1,84,0,1
三明,117.6455212,26.26973652,2020/1/27,8,,12,0,0,63,0,1
漳州,117.6535765,24.51892979,2020/1/27,6,,13,0,0,51,0,0
宁德,119.5545107,26.67224171,2020/1/27,6,,11,0,1,34,0,3
厦门,118.0964355,24.48540661,2020/1/27,5,,5,0,0,32,0,0
南平,118.1843695,26.64777287,2020/1/27,3,,1,0,0,8,0,1
龙岩,117.0234476,25.08121984,2020/1/27,1,,2,0,0,3,0,0
西宁,101.7844502,36.6233847,2020/1/27,6,,23,0,0,80,4,0
凉山州,102.2735027,27.8877523,2020/1/27,0,,12,0,0,63,0,0
包头市东河区,110.0503948,40.58222804,2020/1/27,0,,3,0,0,21,0,0
锡林郭勒盟锡林浩特,116.0936139,43.9383338,2020/1/27,0,,6,0,0,18,0,0
鄂尔多斯东胜区,109.9695601,39.82798698,2020/1/27,0,,7,0,0,13,0,0
赤峰市松山区,118.9394139,42.29248157,2020/1/27,0,,1,1,0,12,1,0
呼伦贝尔满洲里,117.3854359,49.60409885,2020/1/27,0,,1,0,0,10,0,0
兴安盟乌兰浩特,122.0996224,46.07865434,2020/1/27,0,,2,0,0,9,0,0
通辽市经济开发区,122.2505218,43.65798008,2020/1/27,0,,3,0,0,8,0,0
锡林郭勒盟二连浩特,111.9583632,43.64880018,2020/1/27,0,,0,0,0,7,0,0
鄂尔多斯鄂托克前旗,107.4845847,38.18821674,2020/1/27,0,,0,0,0,6,0,0
呼伦贝尔牙克石,120.7183468,49.29202369,2020/1/27,0,,2,0,0,6,0,0
安阳市,114.3995004,36.10594098,2020/1/27,0,,1,0,0,5,0,0
鹤壁市,114.3035936,35.75235741,2020/1/27,0,,5,0,0,5,0,0
邯郸市,114.5456282,36.63126273,2020/1/27,0,,0,0,0,4,0,0
武汉,114.3115816,30.59846674,2020/1/28,1905,,0,0,0,4,0,0
黄冈,114.8784905,30.45935886,2020/1/28,324,,3,0,0,3,0,0
孝感,113.9225101,30.93068923,2020/1/28,274,,0,0,0,1,0,0
荆门,112.206393,31.04173258,2020/1/28,142,,0,0,0,1,0,0
襄阳,112.1285372,32.0147968,2020/1/28,131,,1,0,0,1,0,0
随州,113.38945,31.69651677,2020/1/28,116,,14,2,1,47,5,1
咸宁,114.3285191,29.84705595,2020/1/28,112,,3,0,0,12,0,0
荆州,112.2455226,30.34084211,2020/1/28,101,,2,0,0,7,0,0
十堰,110.8045296,32.63506186,2020/1/28,88,,0,0,0,5,0,0
黄石,115.0455329,30.20520785,2020/1/28,86,,2,0,0,5,0,0
鄂州,114.9016074,30.39657217,2020/1/28,84,,4,0,0,5,0,0
宜昌,111.2925492,30.69744648,2020/1/28,63,,1,0,0,3,0,0
恩施州,109.4945926,30.27793958,2020/1/28,51,,0,0,0,2,0,0
天门,113.1724092,30.66962183,2020/1/28,34,,0,0,0,2,0,0
仙桃,113.4496094,30.33358775,2020/1/28,32,,0,0,0,2,0,0
潜江,112.9054741,30.40835793,2020/1/28,8,,1,0,0,2,0,0
神农架林区,110.6825249,31.75049601,2020/1/28,3,,1,0,0,2,0,0
深圳,114.0645518,22.54845664,2020/1/28,80,,1,0,0,1,0,0
广州,113.2714313,23.13533631,2020/1/28,63,,1,0,0,1,0,0
佛山,113.1285122,23.02775875,2020/1/28,21,,1,0,0,11,0,0
珠海,113.5825548,22.27656465,2020/1/28,18,,0,0,0,8,0,1
中山,113.3994224,22.52231467,2020/1/28,13,,0,0,0,5,0,0
惠州,114.423558,23.11635885,2020/1/28,12,,4,0,0,5,0,0
阳江,111.9884893,21.86433973,2020/1/28,10,,1,0,0,3,0,0
湛江,110.3655544,21.27672344,2020/1/28,9,,0,0,0,2,0,0
汕头,116.6885286,23.35909172,2020/1/28,8,,0,0,0,1,0,0
东莞,113.7584205,23.02730841,2020/1/28,7,,0,0,0,1,0,0
清远,113.0624683,23.68823029,2020/1/28,6,,1,0,0,1,0,0
揭阳,116.3785122,23.55574049,2020/1/28,6,,1,0,0,1,0,0
肇庆,112.4714889,23.05288877,2020/1/28,5,,2,0,0,23,0,0
外地来穗人员,117.0233851,25.99602656,2020/1/28,5,,2,0,0,19,0,0
韶关,113.6035273,24.81588128,2020/1/28,4,,0,2,0,11,2,0
梅州,116.1295374,24.29417753,2020/1/28,4,,3,0,0,10,2,0
茂名,110.9315426,21.66906403,2020/1/28,3,,1,0,0,9,0,0
汕尾,115.3815526,22.79126304,2020/1/28,1,,1,0,0,8,0,0
河源,114.7074463,23.74968437,2020/1/28,1,,1,0,0,8,0,0
江门,113.0885562,22.58460388,2020/1/28,1,,0,0,0,7,0,0
外地来沪人员,117.0233851,25.99602656,2020/1/28,47,,0,0,0,2,0,0
浦东新区,121.5504546,31.22734829,2020/1/28,12,,0,0,0,2,0,0
静安区,121.4534318,31.23384493,2020/1/28,7,,0,0,0,2,0,0
长宁区,121.4304544,31.22684797,2020/1/28,5,,1,0,0,1,0,0
徐汇区,121.4433964,31.19455677,2020/1/28,5,,3,0,0,18,0,0
奉贤区,121.4805037,30.92372011,2020/1/28,5,,2,0,0,10,0,0
黄浦区,121.4915856,31.23724715,2020/1/28,3,,2,0,0,6,0,0
虹口区,121.5115865,31.2697467,2020/1/28,2,,1,0,0,5,0,0
闵行区,121.3886119,31.11884258,2020/1/28,2,,0,0,0,5,0,0
青浦区,121.1305531,31.15545432,2020/1/28,2,,1,0,0,4,0,0
宝山区,121.496563,31.41027947,2020/1/28,2,,1,0,0,3,0,0
嘉定区,121.2725951,31.38015534,2020/1/28,2,,0,0,0,3,0,0
松江,121.2344796,31.03713518,2020/1/28,1,,0,0,0,2,0,0
金山,121.6155666,25.22015442,2020/1/28,1,,9,1,0,46,1,0
哈尔滨,126.5416151,45.80882583,2020/1/28,11,,0,0,0,8,0,0
绥化,126.9753569,46.66003218,2020/1/28,8,,0,0,0,7,0,0
大庆,125.1086576,46.59363318,2020/1/28,5,,0,0,0,7,0,0
佳木斯,130.3273591,46.80568999,2020/1/28,5,,1,0,0,5,0,0
齐齐哈尔,123.9245709,47.35997719,2020/1/28,3,,1,0,0,5,0,0
七台河,131.0115446,45.77630032,2020/1/28,2,,1,0,0,4,0,0
牡丹江,129.6395398,44.55624571,2020/1/28,1,,1,0,0,4,0,0
双鸭山,131.1653417,46.6531859,2020/1/28,1,,0,0,0,3,0,0
鸡西,130.9756187,45.30087232,2020/1/28,1,,0,0,0,3,0,0
大兴安岭,124.1529279,50.42002596,2020/1/28,1,,1,0,0,2,0,0
海淀,116.3054341,39.96548984,2020/1/28,23,,0,0,0,2,0,0
朝阳,120.4574995,41.57982086,2020/1/28,19,,0,0,0,2,0,0
外地来京人员,117.0233851,25.99602656,2020/1/28,11,,1,0,0,2,0,0
大兴,116.3486252,39.73255524,2020/1/28,10,,0,0,0,2,0,0
西城,116.3725136,39.91812361,2020/1/28,9,,0,0,0,2,0,0
昌平,116.2376179,40.22641337,2020/1/28,8,,2,0,0,2,0,0
丰台,116.2924019,39.8649372,2020/1/28,8,,0,0,0,1,0,0
通州,121.0814255,32.07035574,2020/1/28,7,,1,0,0,1,0,0
石景山,116.2296127,39.91135381,2020/1/28,2,,1,0,0,9,0,0
顺义,116.6614243,40.13635076,2020/1/28,2,,0,0,0,5,0,0
东城,116.422401,39.93482727,2020/1/28,2,,0,0,0,5,0,0
门头沟,116.1076036,39.94614672,2020/1/28,1,,0,0,0,4,0,0
西安,108.9464656,34.34726882,2020/1/28,18,,2,0,0,4,0,0
安康,109.0356011,32.69051277,2020/1/28,10,,2,0,0,4,0,0
汉中,107.0294302,33.07379991,2020/1/28,6,,0,0,0,2,0,0
咸阳,108.7154225,34.33547629,2020/1/28,5,,0,0,0,2,0,0
铜川,108.9524042,34.90263708,2020/1/28,5,,0,0,0,2,0,0
宝鸡,107.2445754,34.36891564,2020/1/28,4,,0,0,0,1,0,0
延安,109.4965819,36.59111104,2020/1/28,3,,0,0,0,1,0,0
渭南,109.5165896,34.50571552,2020/1/28,3,,0,0,0,4,0,0
商洛,109.9244179,33.87863385,2020/1/28,2,,0,0,0,2,0,0
成都,104.0815335,30.65582188,2020/1/28,46,,0,1,0,1,1,0
绵阳,104.6855619,31.47366305,2020/1/28,8,,0,0,0,1,0,0
广安,106.6395527,30.46174611,2020/1/28,7,,0,0,0,1,0,0
自贡,104.7844488,29.34558492,2020/1/28,7,,1,0,0,16,0,0
泸州,105.4485241,28.8776683,2020/1/28,5,,2,0,0,13,0,0
南充,106.1175026,30.84378251,2020/1/28,5,,2,0,0,7,0,0
达州,107.4745939,31.21430772,2020/1/28,4,,0,0,0,6,0,0
内江,105.064588,29.58588654,2020/1/28,4,,2,0,0,5,1,0
遂宁,105.5994215,30.53909767,2020/1/28,3,,0,0,0,4,1,0
甘孜州,101.9685467,30.05527884,2020/1/28,3,,0,0,0,3,0,0
德阳,104.4044194,31.133115,2020/1/28,2,,0,0,0,2,0,0
雅安,103.0495426,30.01679255,2020/1/28,2,,0,0,0,2,0,0
乐山,103.7725376,29.55794072,2020/1/28,2,,54,0,0,114,3,0
宜宾,104.6494037,28.75800703,2020/1/28,2,,19,0,0,51,0,0
凉山,102.2735027,27.8877523,2020/1/28,2,,18,0,0,40,0,0
资阳,104.6344353,30.13495656,2020/1/28,2,,3,0,0,20,0,0
巴中,106.7515853,31.87288859,2020/1/28,2,,12,0,0,19,0,0
眉山,103.8565633,30.08252612,2020/1/28,1,,3,0,0,14,0,0
广元,105.8504232,32.44161631,2020/1/28,1,,6,0,0,13,0,0
沈阳,123.4710966,41.68383007,2020/1/28,9,,3,0,0,8,0,0
大连,121.6216315,38.91895367,2020/1/28,5,,2,0,0,6,0,0
丹东,124.3615473,40.00640871,2020/1/28,5,,1,0,0,6,0,0
锦州,121.1325963,41.1009315,2020/1/28,4,,2,0,0,5,0,0
朝阳,120.4574995,41.57982086,2020/1/28,4,,2,1,0,17,1,0
葫芦岛,120.8433983,40.71736444,2020/1/28,4,,8,0,0,16,0,0
本溪,123.6925071,41.49291646,2020/1/28,2,,2,0,0,12,0,0
铁岭,123.7323652,42.229948,2020/1/28,2,,2,0,0,12,0,0
盘锦,122.0774901,41.12587529,2020/1/28,2,,1,0,0,11,0,0
营口,122.2415747,40.67313684,2020/1/28,1,,3,0,0,11,0,0
辽阳,123.2433664,41.27416129,2020/1/28,1,,3,0,0,8,0,0
黔南州,107.5284027,26.2606162,2020/1/28,4,,2,0,0,8,0,0
铜仁,109.1964389,27.73778646,2020/1/28,2,,2,0,0,7,0,0
贵阳,106.6365768,26.65332482,2020/1/28,1,,3,0,0,7,0,0
黔西南州,104.9124921,25.09396735,2020/1/28,1,,2,0,0,5,0,0
六盘水,104.8375546,26.59883311,2020/1/28,1,,0,0,0,5,0,0
桂林,110.2035454,25.24288572,2020/1/28,16,,2,0,0,4,0,0
北海,109.1265332,21.4868365,2020/1/28,13,,1,0,0,4,0,0
南宁,108.3734508,22.8226066,2020/1/28,7,,2,0,0,3,0,0
柳州,109.4344219,24.33196139,2020/1/28,6,,3,0,0,15,0,0
防城港,108.3604188,21.69300529,2020/1/28,5,,4,0,0,10,0,0
梧州,111.2855168,23.48274528,2020/1/28,4,,0,0,0,6,0,0
河池,108.0914999,24.69891173,2020/1/28,3,,3,0,0,5,0,0
百色,106.6245893,23.90818593,2020/1/28,2,,0,0,0,5,0,0
玉林,110.1884531,22.65983051,2020/1/28,2,,0,0,0,4,0,0
温州,120.7064769,28.0010854,2020/1/28,114,,0,0,0,3,0,0
杭州,120.2155118,30.25308298,2020/1/28,51,,0,0,0,2,0,0
台州,121.4274347,28.66219406,2020/1/28,40,,0,0,0,2,0,0
宁波,121.6285725,29.86603305,2020/1/28,20,,0,0,0,2,0,0
绍兴,120.5854785,30.03636931,2020/1/28,19,,1,0,0,1,0,0
嘉兴,120.7635518,30.75097483,2020/1/28,14,,0,0,0,14,0,0
金华,119.6534362,29.08463939,2020/1/28,13,,2,0,0,9,0,0
衢州,118.8665967,28.9755458,2020/1/28,8,,1,0,0,8,0,0
舟山,122.2135563,29.99091168,2020/1/28,6,,0,0,0,5,0,0
丽水,119.9295731,28.47327818,2020/1/28,6,,0,0,0,2,0,1
湖州,120.0945166,30.89896394,2020/1/28,5,,0,0,0,1,0,0
青岛,120.3894552,36.0722275,2020/1/28,17,,0,0,0,1,0,0
临沂,118.363533,35.11067124,2020/1/28,16,,0,0,0,1,0,0
威海,122.127541,37.51643055,2020/1/28,12,,0,0,0,1,0,0
烟台,121.4544154,37.47003838,2020/1/28,12,,0,0,0,1,0,0
济南,117.1263994,36.6565542,2020/1/28,11,,0,0,0,3,0,0
德州,116.3655567,37.44130845,2020/1/28,11,,0,0,0,2,0,0
枣庄,117.3305419,34.81599405,2020/1/28,8,,0,0,0,2,0,0
日照,119.5334154,35.422839,2020/1/28,8,,0,0,0,2,0,0
菏泽,115.487545,35.23940742,2020/1/28,7,,0,0,0,2,0,0
滨州,117.977404,37.3881962,2020/1/28,7,,0,0,0,2,0,0
潍坊,119.1683779,36.71265155,2020/1/28,5,,0,0,0,1,0,0
济宁,116.5936123,35.42017739,2020/1/28,5,,0,0,0,1,0,0
淄博,118.0614525,36.81908568,2020/1/28,4,,1,0,0,1,0,0
聊城,115.9915878,36.46275819,2020/1/28,4,,0,0,0,7,0,0
泰安,117.0944948,36.20585804,2020/1/28,3,,1,0,0,3,0,0
昆明,102.8524484,24.87399815,2020/1/28,15,,0,0,0,1,0,0
西双版纳,100.8034468,22.01360125,2020/1/28,10,,0,0,0,1,0,0
丽江,100.2324645,26.86065744,2020/1/28,6,,3,0,0,14,0,0
曲靖,103.8024348,25.49640693,2020/1/28,5,,0,0,0,2,0,0
玉溪,102.5535603,24.35771094,2020/1/28,5,,1,0,0,2,0,0
保山,99.17727329,25.13903879,2020/1/28,4,,1,0,0,1,0,0
大理,100.2745828,25.61212842,2020/1/28,3,,0,0,0,1,0,0
红河,103.3815491,23.36999625,2020/1/28,2,,0,0,0,1,0,0
昭通,103.7235118,27.34408386,2020/1/28,2,,1,0,0,1,0,0
德宏,98.59135936,24.4380107,2020/1/28,2,,1,0,0,1,0,0
普洱,100.9725698,22.83097919,2020/1/28,1,,1,0,0,1,0,0
三亚,109.5185567,18.25873629,2020/1/28,14,,0,0,0,7,0,0
海口,110.3255255,20.04404944,2020/1/28,9,,0,0,0,6,0,0
万宁,110.3994344,18.80010699,2020/1/28,8,,2,0,0,4,0,0
儋州,109.5874558,19.52714611,2020/1/28,5,,0,0,0,3,0,0
澄迈县,110.0135109,19.74434867,2020/1/28,2,,1,0,0,2,0,0
临高县,109.697443,19.91947477,2020/1/28,1,,0,0,0,2,0,0
陵水县,110.0444641,18.5123316,2020/1/28,1,,0,0,0,1,0,0
琼海市,110.4805445,19.26425402,2020/1/28,1,,0,0,0,1,0,0
东方市,108.6585665,19.10110473,2020/1/28,1,,0,0,0,1,0,0
琼中县,109.8445106,19.03916379,2020/1/28,1,,2,0,0,17,0,0
包头,109.8465435,40.66292879,2020/1/28,3,,2,0,0,11,0,0
呼和浩特,111.7555086,40.848423,2020/1/28,2,,2,0,0,11,0,0
呼伦贝尔,119.7723705,49.21844648,2020/1/28,2,,1,0,0,11,0,0
锡林郭勒盟,116.0543914,43.93942267,2020/1/28,2,,0,0,0,8,0,0
鄂尔多斯,109.7874432,39.61448231,2020/1/28,2,,0,0,0,7,0,0
赤峰,118.8955204,42.2616861,2020/1/28,2,,1,0,0,7,0,0
兴安盟,122.0443645,46.08846371,2020/1/28,1,,0,0,0,6,0,0
通辽,122.2505218,43.65798008,2020/1/28,1,,0,0,0,6,0,0
巴彦淖尔,107.3943981,40.74935949,2020/1/28,1,,1,0,0,5,0,0
银川,106.2384936,38.49246006,2020/1/28,7,,0,0,0,5,0,0
吴忠,106.2053713,38.00371291,2020/1/28,3,,1,0,0,5,0,0
中卫,105.2035709,37.50570142,2020/1/28,1,,0,0,0,5,0,0
固原,106.2485774,36.02161726,2020/1/28,1,,0,1,0,5,1,0
兰州,103.8405212,36.06723469,2020/1/28,14,,0,0,0,5,0,0
临夏,103.2163906,35.60756218,2020/1/28,2,,2,0,0,4,0,0
张掖,100.4564115,38.93206601,2020/1/28,2,,1,0,0,4,0,0
白银市,104.1444508,36.55082533,2020/1/28,1,,1,0,0,4,0,0
定西,104.6324201,35.58683293,2020/1/28,1,,0,0,0,3,0,0
陇南,104.928575,33.40662023,2020/1/28,1,,0,0,0,3,0,0
金昌市,102.1946057,38.52582009,2020/1/28,1,,0,0,0,2,0,0
天水市,105.7314167,34.58741188,2020/1/28,1,,0,0,0,2,0,0
平凉市,106.6714423,35.54923205,2020/1/28,1,,0,0,0,2,0,0
河北区,117.2035928,39.15348514,2020/1/28,7,,0,0,0,1,0,0
河东区,117.258413,39.13448733,2020/1/28,6,,0,0,0,1,0,0
外地来津,90.93673264,29.04970447,2020/1/28,4,,0,0,0,1,0,0
河西区,117.2294163,39.11571808,2020/1/28,3,,0,0,0,1,0,0
和平区,121.150732,24.27955689,2020/1/28,2,,0,0,0,1,0,0
西青区,117.0144102,39.14872661,2020/1/28,2,,0,0,0,1,0,0
滨海新区,117.7173988,39.00941577,2020/1/28,1,,0,0,0,1,0,0
南开区,117.1565154,39.14410528,2020/1/28,1,,1,0,0,1,0,0
红桥区,117.1575179,39.17328565,2020/1/28,1,,8,0,0,20,1,0
万州区,108.4155584,30.81362164,2020/1/28,17,,4,0,0,14,0,0
开州区,108.3994977,31.16664411,2020/1/28,11,,3,0,0,9,0,0
忠县,108.0445375,30.30526839,2020/1/28,11,,3,0,0,8,0,0
云阳县,108.7034475,30.93661127,2020/1/28,11,,0,0,0,8,0,0
两江新区,106.5725816,29.68005454,2020/1/28,8,,4,0,0,8,0,0
长寿区,107.0875311,29.86352007,2020/1/28,7,,0,0,0,8,0,0
石柱县,108.1204142,30.0061087,2020/1/28,7,,0,0,0,6,0,0
大渡口区,106.4885336,29.49010713,2020/1/28,6,,5,0,0,6,0,0
渝北区,106.6375591,29.72392734,2020/1/28,6,,1,0,0,4,0,0
江北区,121.5604213,29.89294838,2020/1/28,5,,0,0,0,3,0,0
九龙坡区,106.5175587,29.50792772,2020/1/28,5,,1,0,0,3,0,0
合川区,106.2825411,29.97818124,2020/1/28,5,,0,0,0,2,0,0
垫江县,107.3395659,30.33329397,2020/1/28,5,,3,0,0,40,0,0
巫山县,109.8855455,31.08051881,2020/1/28,5,,3,0,0,32,0,0
巫溪县,109.5764026,31.40488001,2020/1/28,5,,5,0,0,31,0,1
綦江区,106.6574842,29.03411375,2020/1/28,4,,4,0,0,19,0,0
璧山区,106.2334746,29.59834661,2020/1/28,4,,6,0,0,16,0,0
奉节县,109.4704728,31.02460177,2020/1/28,4,,14,0,0,14,0,0
永川区,105.9334994,29.36204634,2020/1/28,3,,7,0,0,14,0,0
丰都县,107.7374806,29.86941279,2020/1/28,3,,9,0,0,9,0,0
江津区,106.2655976,29.29588437,2020/1/28,2,,1,0,0,7,0,0
铜梁区,106.0634495,29.85050878,2020/1/28,2,,0,0,0,5,0,0
潼南区,105.847399,30.19731424,2020/1/28,2,,3,0,0,5,0,0
涪陵区,107.3964198,29.7092782,2020/1/28,1,,1,0,0,4,0,0
巴南区,106.5474543,29.40847474,2020/1/28,1,,1,0,0,3,0,0
大足区,105.7284046,29.71311351,2020/1/28,1,,0,0,0,2,0,0
梁平区,107.7760973,30.66055326,2020/1/28,1,,0,0,0,2,0,0
城口县,108.6716116,31.95339075,2020/1/28,1,,0,0,0,2,0,0
秀山县,109.0135739,28.45344786,2020/1/28,1,,1,0,0,1,0,0
黔江区,108.7775912,29.53881257,2020/1/28,1,,22,0,0,46,0,0
渝中区,106.5754401,29.55909018,2020/1/28,1,,9,0,0,26,0,0
苏州,120.5924122,31.30356407,2020/1/28,20,,7,0,0,26,0,0
南京,118.8024217,32.06465289,2020/1/28,14,,8,0,0,19,0,0
无锡,120.3185833,31.49880973,2020/1/28,9,,2,0,0,18,0,0
扬州,119.4194189,32.40067694,2020/1/28,8,,10,0,0,17,0,0
常州,119.9814847,31.81579565,2020/1/28,8,,4,0,0,14,0,0
泰州,119.9295663,32.46067505,2020/1/28,8,,6,0,0,13,0,0
徐州,117.2905754,34.21266655,2020/1/28,8,,4,0,0,13,0,0
南通,120.9015917,31.98654943,2020/1/28,6,,4,0,0,11,0,0
盐城,120.1675443,33.35510092,2020/1/28,6,,2,0,0,8,0,0
宿迁,118.281574,33.96774972,2020/1/28,4,,0,0,0,7,0,0
连云港,119.2286213,34.60224953,2020/1/28,3,,4,0,0,9,0,0
淮安,119.0214837,33.6162953,2020/1/28,3,,1,0,0,4,0,0
镇江,119.4304894,32.19471592,2020/1/28,2,,0,1,0,3,1,0
郑州,113.6314192,34.75343885,2020/1/28,40,,2,0,0,3,0,0
信阳,114.0974828,32.15301455,2020/1/28,32,,0,0,0,3,0,0
南阳,112.5345013,32.9965622,2020/1/28,31,,0,0,0,2,0,0
周口,114.7034825,33.63182888,2020/1/28,19,,0,0,0,1,0,0
驻马店,114.0284708,33.01784242,2020/1/28,16,,0,0,0,1,0,0
安阳市,114.3995004,36.10594098,2020/1/28,14,,0,0,0,1,0,0
商丘,115.6624493,34.42020167,2020/1/28,14,,1,0,0,10,0,0
漯河市,114.0234208,33.58771071,2020/1/28,9,,3,0,0,9,0,0
新乡,113.9336005,35.30963993,2020/1/28,7,,3,0,0,8,0,1
平顶山,113.1995286,33.77205075,2020/1/28,5,,3,0,0,6,0,0
鹤壁,114.3035936,35.75235741,2020/1/28,5,,0,0,0,4,0,0
三门峡,111.2065332,34.77832725,2020/1/28,4,,1,0,0,3,0,0
开封,114.3145926,34.80288581,2020/1/28,3,,1,0,0,3,0,0
洛阳,112.4594213,34.62426278,2020/1/28,2,,2,0,0,3,0,0
许昌,113.8584755,34.04143161,2020/1/28,2,,0,0,0,1,0,0
焦作,113.2485478,35.22096325,2020/1/28,2,,1,0,0,1,0,0
濮阳,115.0355975,35.76759303,2020/1/28,1,,0,0,0,3,0,0
长沙,112.9454732,28.2348894,2020/1/28,46,,0,0,0,2,0,0
岳阳,113.1354894,29.36317829,2020/1/28,26,,0,0,0,1,0,0
常德,111.7054522,29.03775,2020/1/28,26,,1,0,0,1,0,0
邵阳,111.4744329,27.24527027,2020/1/28,19,,0,0,0,1,0,0
怀化,110.0085143,27.5751609,2020/1/28,18,,1,0,0,1,0,0
衡阳,112.5784472,26.89957614,2020/1/28,17,,8,0,0,25,0,0
益阳,112.361516,28.55971118,2020/1/28,14,,7,0,0,16,0,0
株洲,113.1404708,27.83356764,2020/1/28,13,,6,0,0,16,0,0
娄底,112.0015035,27.7032086,2020/1/28,13,,4,0,0,14,0,0
永州,111.6194551,26.42586412,2020/1/28,11,,8,0,0,11,1,0
湘潭,112.9504642,27.83570223,2020/1/28,8,,1,0,0,9,0,0
郴州,113.0214605,25.77668327,2020/1/28,7,,2,0,0,9,0,0
晋中,112.7595948,37.69283941,2020/1/28,9,,1,0,0,4,1,0
运城,111.0133895,35.03270691,2020/1/28,4,,0,0,0,2,1,0
太原,112.5563915,37.87698903,2020/1/28,3,,0,0,0,2,0,0
大同,113.3064363,40.08246872,2020/1/28,3,,0,0,0,1,0,0
吕梁,111.1504497,37.52449775,2020/1/28,3,,1,0,0,6,0,0
朔州,112.4393709,39.33710837,2020/1/28,2,,0,0,0,1,0,0
阳泉,113.5876167,37.86236085,2020/1/28,1,,0,0,0,1,0,0
长治,113.1225589,36.20126837,2020/1/28,1,,0,0,0,1,0,0
临汾,111.5255302,36.0937419,2020/1/28,1,,13,1,0,29,1,0
石家庄,114.5215319,38.04831193,2020/1/28,10,,2,0,0,23,0,0
廊坊,116.6905817,39.54336666,2020/1/28,9,,7,1,0,15,1,0
沧州,116.8455808,38.31021514,2020/1/28,8,,6,0,0,14,0,0
保定,115.4714638,38.87998777,2020/1/28,6,,1,0,0,11,0,0
邯郸,114.5456282,36.63126273,2020/1/28,4,,2,0,0,11,0,0
邢台,114.5114623,37.07668595,2020/1/28,3,,0,0,0,9,0,0
衡水,115.6754061,37.74519141,2020/1/28,3,,6,0,0,9,0,0
唐山,118.1864595,39.63658372,2020/1/28,3,,3,0,0,7,0,0
承德,117.9693975,40.95785601,2020/1/28,1,,2,0,0,6,0,0
张家口,114.8925722,40.7732372,2020/1/28,1,,0,0,0,4,0,0
吉林,126.5556345,43.84356783,2020/1/28,3,,4,0,0,4,0,0
松原,124.8314819,45.14740419,2020/1/28,2,,0,0,0,3,0,0
长春,125.3306021,43.8219535,2020/1/28,1,,0,0,0,2,0,0
四平市,124.3564816,43.17199357,2020/1/28,1,,0,0,0,2,0,0
公主岭,124.8294487,43.51083266,2020/1/28,1,,0,0,0,2,0,0
通化,125.9466063,41.7338158,2020/1/28,1,,0,0,0,1,0,0
南昌,115.8645894,28.6894553,2020/1/28,25,,0,0,0,24,0,0
九江,116.0075349,29.71134056,2020/1/28,16,,0,0,0,14,0,0
赣州,114.9405034,25.8351761,2020/1/28,16,,0,0,0,13,0,0
宜春,114.4235637,27.82085642,2020/1/28,14,,0,0,0,8,0,0
新余,114.9235347,27.8235787,2020/1/28,11,,1,0,0,7,0,0
抚州,116.3645388,27.95489225,2020/1/28,9,,1,0,0,6,0,0
上饶,117.9494596,28.46062592,2020/1/28,9,,0,0,0,6,0,0
吉安,115.0005107,27.11972683,2020/1/28,4,,0,0,0,3,0,0
萍乡,113.8614964,27.62839271,2020/1/28,2,,0,0,0,1,0,0
景德镇,117.1845764,29.27424771,2020/1/28,2,,356,0,25,2261,54,129
鹰潭,117.0755754,28.26578706,2020/1/28,1,,172,3,7,496,5,12
乌鲁木齐,87.62443994,43.8307632,2020/1/28,6,,125,0,3,399,0,6
吐鲁番市,89.19729725,42.95698485,2020/1/28,1,,49,0,0,191,0,4
第七师,113.3045127,23.083274,2020/1/28,1,,32,0,0,163,0,0
第八师石河子市,118.7724304,32.24015401,2020/1/28,1,,50,0,1,151,1,3
合肥,117.2334427,31.82657783,2020/1/28,29,,27,0,0,143,0,0
阜阳,115.8204361,32.89606099,2020/1/28,23,,18,0,0,130,0,0
亳州,115.7844632,33.8506427,2020/1/28,15,,39,0,1,123,0,2
安庆,117.0636039,30.53095657,2020/1/28,14,,31,0,0,119,0,0
马鞍山,118.5135796,31.6762656,2020/1/28,11,,54,0,0,117,0,1
芜湖,118.4394314,31.35853666,2020/1/28,11,,27,0,0,113,0,1
铜陵,117.8184768,30.95123324,2020/1/28,9,,15,0,0,66,0,0
宿州,116.9705439,33.65209533,2020/1/28,9,,23,0,0,55,0,0
黄山,118.3454373,29.72188979,2020/1/28,7,,10,0,0,44,0,3
六安,116.5264097,31.74145082,2020/1/28,6,,2,0,0,10,0,1
滁州,118.3394061,32.26127087,2020/1/28,4,,2,0,0,5,0,0
宿松,116.1355237,30.15978686,2020/1/28,4,,18,0,0,98,4,0
蚌埠,117.3955133,32.9215237,2020/1/28,3,,31,3,0,94,3,0
宣城,118.7655342,30.94660155,2020/1/28,2,,8,0,0,26,0,0
淮北,116.8045373,33.9616563,2020/1/28,2,,4,0,0,25,0,0
淮南,117.0063889,32.6318474,2020/1/28,2,,5,0,0,18,0,0
池州,117.498421,30.67088379,2020/1/28,1,,5,0,0,17,1,0
福州,119.3034698,26.08042942,2020/1/28,24,,4,0,0,12,0,0
莆田,119.014521,25.45986546,2020/1/28,14,,2,0,0,11,0,0
泉州,118.6824463,24.87995233,2020/1/28,13,,4,0,0,11,0,0
三明,117.6455212,26.26973652,2020/1/28,8,,0,0,0,10,0,0
宁德,119.5545107,26.67224171,2020/1/28,7,,0,0,0,6,0,0
厦门,118.0964355,24.48540661,2020/1/28,6,,0,0,0,6,0,0
漳州,117.6535765,24.51892979,2020/1/28,6,,0,0,0,5,0,0
南平,118.1843695,26.64777287,2020/1/28,3,,1,0,0,5,0,0
龙岩,117.0234476,25.08121984,2020/1/28,1,,0,0,0,4,0,0
西宁,101.7844502,36.6233847,2020/1/28,6,,0,0,0,3,0,0
白银,104.1444508,36.55082533,2020/1/28,0,,0,0,0,1,0,0
金昌,102.1946057,38.52582009,2020/1/28,0,,0,0,0,1,0,0
天水,105.7314167,34.58741188,2020/1/28,0,,0,0,0,1,0,0
安阳,114.3995004,36.10594098,2020/1/28,0,,4,-5,0,51,0,1
漯河,114.0234208,33.58771071,2020/1/28,0,,5,0,0,17,0,0
四平,124.3564816,43.17199357,2020/1/28,0,,1,0,0,8,0,0
武汉,114.3115816,30.59846674,2020/1/29,2261,,0,0,0,5,0,0
黄冈,114.8784905,30.45935886,2020/1/29,496,,0,0,0,5,0,0
孝感,113.9225101,30.93068923,2020/1/29,399,,0,0,0,5,0,0
荆门,112.206393,31.04173258,2020/1/29,191,,1,0,0,4,0,0
襄阳,112.1285372,32.0147968,2020/1/29,163,,2,0,0,4,0,0
荆州,112.2455226,30.34084211,2020/1/29,151,,2,0,0,3,0,0
随州,113.38945,31.69651677,2020/1/29,143,,0,0,0,2,0,0
咸宁,114.3285191,29.84705595,2020/1/29,130,,0,0,0,2,0,0
鄂州,114.9016074,30.39657217,2020/1/29,123,,0,0,0,2,0,0
十堰,110.8045296,32.63506186,2020/1/29,119,,0,0,0,2,0,0
宜昌,111.2925492,30.69744648,2020/1/29,117,,0,0,0,1,0,0
黄石,115.0455329,30.20520785,2020/1/29,113,,1,0,0,1,0,0
恩施州,109.4945926,30.27793958,2020/1/29,66,,2,0,0,13,0,0
仙桃,113.4496094,30.33358775,2020/1/29,55,,2,0,0,10,0,1
天门,113.1724092,30.66962183,2020/1/29,44,,0,0,0,5,0,0
潜江,112.9054741,30.40835793,2020/1/29,10,,0,0,0,5,0,0
神农架林区,110.6825249,31.75049601,2020/1/29,5,,0,0,0,3,0,0
深圳,114.0645518,22.54845664,2020/1/29,98,,0,0,0,2,0,0
广州,113.2714313,23.13533631,2020/1/29,94,,0,0,0,1,0,0
珠海,113.5825548,22.27656465,2020/1/29,26,,0,0,0,1,0,0
佛山,113.1285122,23.02775875,2020/1/29,25,,0,0,0,1,0,0
中山,113.3994224,22.52231467,2020/1/29,18,,0,0,0,1,0,0
惠州,114.423558,23.11635885,2020/1/29,17,,1,0,0,1,0,0
汕头,116.6885286,23.35909172,2020/1/29,12,,1,0,0,24,0,0
湛江,110.3655544,21.27672344,2020/1/29,11,,2,0,0,21,0,0
东莞,113.7584205,23.02730841,2020/1/29,11,,3,0,0,12,0,0
阳江,111.9884893,21.86433973,2020/1/29,10,,0,0,0,11,2,0
清远,113.0624683,23.68823029,2020/1/29,6,,2,0,0,10,0,0
揭阳,116.3785122,23.55574049,2020/1/29,6,,0,0,0,10,2,0
肇庆,112.4714889,23.05288877,2020/1/29,5,,0,0,0,8,0,0
梅州,116.1295374,24.29417753,2020/1/29,5,,1,0,0,8,0,0
韶关,113.6035273,24.81588128,2020/1/29,4,,0,0,0,2,0,0
茂名,110.9315426,21.66906403,2020/1/29,3,,0,0,0,2,0,0
汕尾,115.3815526,22.79126304,2020/1/29,1,,0,0,0,2,0,0
河源,114.7074463,23.74968437,2020/1/29,1,,0,0,0,1,0,0
江门,113.0885562,22.58460388,2020/1/29,1,,4,0,0,22,0,0
外地来沪人员,117.0233851,25.99602656,2020/1/29,51,,0,0,0,10,0,0
浦东新区,121.5504546,31.22734829,2020/1/29,17,,0,0,0,6,0,0
静安区,121.4534318,31.23384493,2020/1/29,8,,0,0,0,5,0,0
长宁区,121.4304544,31.22684797,2020/1/29,5,,0,0,0,5,0,0
徐汇区,121.4433964,31.19455677,2020/1/29,5,,1,0,0,4,0,0
奉贤区,121.4805037,30.92372011,2020/1/29,5,,0,0,0,4,0,0
黄浦区,121.4915856,31.23724715,2020/1/29,4,,0,0,0,3,0,0
闵行区,121.3886119,31.11884258,2020/1/29,4,,0,0,0,2,0,0
松江,121.2344796,31.03713518,2020/1/29,3,,1,0,0,1,0,0
虹口区,121.5115865,31.2697467,2020/1/29,2,,1,0,0,1,0,0
青浦区,121.1305531,31.15545432,2020/1/29,2,,13,0,1,59,1,1
宝山区,121.496563,31.41027947,2020/1/29,2,,1,0,0,9,0,0
嘉定区,121.2725951,31.38015534,2020/1/29,2,,2,0,0,9,0,0
金山,121.6155666,25.22015442,2020/1/29,1,,4,0,0,9,0,0
杨浦,121.5325199,31.26552414,2020/1/29,1,,0,0,0,7,0,0
哈尔滨,126.5416151,45.80882583,2020/1/29,13,,2,0,0,6,0,0
绥化,126.9753569,46.66003218,2020/1/29,10,,0,0,0,5,0,0
大庆,125.1086576,46.59363318,2020/1/29,5,,2,0,0,5,0,0
佳木斯,130.3273591,46.80568999,2020/1/29,5,,3,0,0,5,0,0
齐齐哈尔,123.9245709,47.35997719,2020/1/29,3,,1,0,0,4,0,0
七台河,131.0115446,45.77630032,2020/1/29,2,,0,0,0,4,0,0
牡丹江,129.6395398,44.55624571,2020/1/29,1,,2,0,0,4,0,0
双鸭山,131.1653417,46.6531859,2020/1/29,1,,1,0,0,3,0,0
鸡西,130.9756187,45.30087232,2020/1/29,1,,2,0,0,3,0,0
大兴安岭,124.1529279,50.42002596,2020/1/29,1,,0,0,0,2,0,0
鹤岗,130.3044329,47.35605616,2020/1/29,1,,0,0,0,2,0,0
海淀,116.3054341,39.96548984,2020/1/29,24,,1,0,0,2,0,0
朝阳,120.4574995,41.57982086,2020/1/29,21,,0,0,0,2,0,0
西城,116.3725136,39.91812361,2020/1/29,12,,0,0,0,2,0,0
外地来京人员,117.0233851,25.99602656,2020/1/29,11,,0,0,0,9,0,0
丰台,116.2924019,39.8649372,2020/1/29,10,,0,1,0,5,1,0
大兴,116.3486252,39.73255524,2020/1/29,10,,0,0,0,5,0,0
昌平,116.2376179,40.22641337,2020/1/29,8,,0,0,0,4,0,0
通州,121.0814255,32.07035574,2020/1/29,8,,0,0,0,4,0,0
石景山,116.2296127,39.91135381,2020/1/29,2,,0,0,0,4,0,0
顺义,116.6614243,40.13635076,2020/1/29,2,,1,0,0,3,0,0
东城,116.422401,39.93482727,2020/1/29,2,,1,0,0,3,0,0
门头沟,116.1076036,39.94614672,2020/1/29,1,,0,0,0,2,0,0
西安,108.9464656,34.34726882,2020/1/29,22,,0,0,0,1,0,0
安康,109.0356011,32.69051277,2020/1/29,10,,0,0,0,1,0,0
汉中,107.0294302,33.07379991,2020/1/29,6,,0,0,0,4,0,0
咸阳,108.7154225,34.33547629,2020/1/29,5,,0,0,0,2,0,0
铜川,108.9524042,34.90263708,2020/1/29,5,,0,0,0,1,1,0
渭南,109.5165896,34.50571552,2020/1/29,4,,0,0,0,1,0,0
宝鸡,107.2445754,34.36891564,2020/1/29,4,,0,0,0,1,0,0
延安,109.4965819,36.59111104,2020/1/29,3,,1,0,0,1,0,0
商洛,109.9244179,33.87863385,2020/1/29,2,,1,0,0,1,0,0
榆林,109.741616,38.29088384,2020/1/29,1,,1,0,0,1,0,0
韩城,110.4495526,35.48208679,2020/1/29,1,,2,0,0,18,0,0
成都,104.0815335,30.65582188,2020/1/29,59,,2,0,0,15,0,0
绵阳,104.6855619,31.47366305,2020/1/29,9,,8,0,0,15,0,0
广安,106.6395527,30.46174611,2020/1/29,9,,4,0,0,10,0,0
南充,106.1175026,30.84378251,2020/1/29,9,,0,0,0,5,1,0
自贡,104.7844488,29.34558492,2020/1/29,7,,2,0,0,5,0,0
达州,107.4745939,31.21430772,2020/1/29,6,,0,0,0,4,1,0
泸州,105.4485241,28.8776683,2020/1/29,5,,0,0,0,2,0,0
甘孜州,101.9685467,30.05527884,2020/1/29,5,,0,0,0,2,0,0
宜宾,104.6494037,28.75800703,2020/1/29,5,,1,0,0,1,0,0
遂宁,105.5994215,30.53909767,2020/1/29,4,,1,0,0,1,0,0
内江,105.064588,29.58588654,2020/1/29,4,,58,0,0,172,3,0
巴中,106.7515853,31.87288859,2020/1/29,4,,18,0,0,69,0,0
德阳,104.4044194,31.133115,2020/1/29,3,,24,0,0,64,0,0
广元,105.8504232,32.44161631,2020/1/29,3,,21,0,0,41,0,0
雅安,103.0495426,30.01679255,2020/1/29,2,,7,0,0,20,0,0
乐山,103.7725376,29.55794072,2020/1/29,2,,0,0,0,19,0,0
眉山,103.8565633,30.08252612,2020/1/29,2,,2,0,0,16,0,0
凉山,102.2735027,27.8877523,2020/1/29,2,,2,0,0,10,0,0
资阳,104.6344353,30.13495656,2020/1/29,2,,0,0,0,6,0,0
沈阳,123.4710966,41.68383007,2020/1/29,9,,0,1,0,6,1,0
大连,121.6216315,38.91895367,2020/1/29,5,,0,0,0,5,0,0
丹东,124.3615473,40.00640871,2020/1/29,5,,4,0,0,21,1,0
锦州,121.1325963,41.1009315,2020/1/29,4,,0,0,0,16,0,0
朝阳,120.4574995,41.57982086,2020/1/29,4,,4,0,0,15,0,0
葫芦岛,120.8433983,40.71736444,2020/1/29,4,,2,0,0,14,0,0
本溪,123.6925071,41.49291646,2020/1/29,3,,3,0,0,14,0,0
盘锦,122.0774901,41.12587529,2020/1/29,3,,1,0,0,13,0,0
铁岭,123.7323652,42.229948,2020/1/29,2,,1,0,0,9,0,0
营口,122.2415747,40.67313684,2020/1/29,1,,1,0,0,9,0,0
辽阳,123.2433664,41.27416129,2020/1/29,1,,2,0,0,9,0,0
黔南州,107.5284027,26.2606162,2020/1/29,4,,3,0,0,8,0,0
铜仁,109.1964389,27.73778646,2020/1/29,2,,4,0,0,8,0,0
贵阳,106.6365768,26.65332482,2020/1/29,1,,2,0,0,7,0,0
黔西南州,104.9124921,25.09396735,2020/1/29,1,,0,0,0,7,0,0
六盘水,104.8375546,26.59883311,2020/1/29,1,,1,0,0,5,0,0
遵义,106.9334277,27.73170088,2020/1/29,1,,0,0,0,3,0,0
黔东南州,107.9894462,26.58970297,2020/1/29,1,,6,0,0,21,0,0
毕节,105.2985888,27.29021508,2020/1/29,1,,0,0,0,10,0,0
桂林,110.2035454,25.24288572,2020/1/29,18,,0,0,0,6,0,0
北海,109.1265332,21.4868365,2020/1/29,15,,1,0,0,6,0,0
南宁,108.3734508,22.8226066,2020/1/29,15,,0,0,0,5,0,0
柳州,109.4344219,24.33196139,2020/1/29,10,,1,0,0,5,0,0
防城港,108.3604188,21.69300529,2020/1/29,5,,2,0,0,4,0,0
河池,108.0914999,24.69891173,2020/1/29,5,,1,0,0,4,0,0
梧州,111.2855168,23.48274528,2020/1/29,4,,2,0,0,4,0,0
百色,106.6245893,23.90818593,2020/1/29,2,,2,0,0,3,0,0
玉林,110.1884531,22.65983051,2020/1/29,2,,0,0,0,2,0,0
钦州,108.6605802,21.98659354,2020/1/29,1,,0,1,0,14,1,0
贺州,111.5735263,24.4094509,2020/1/29,1,,0,0,0,9,0,0
温州,120.7064769,28.0010854,2020/1/29,172,,0,0,0,8,0,0
杭州,120.2155118,30.25308298,2020/1/29,69,,0,0,0,5,0,0
台州,121.4274347,28.66219406,2020/1/29,64,,2,0,0,3,0,0
宁波,121.6285725,29.86603305,2020/1/29,41,,0,0,0,2,0,1
金华,119.6534362,29.08463939,2020/1/29,20,,1,0,0,2,0,0
绍兴,120.5854785,30.03636931,2020/1/29,19,,0,0,0,1,0,0
嘉兴,120.7635518,30.75097483,2020/1/29,16,,0,0,0,1,0,0
衢州,118.8665967,28.9755458,2020/1/29,10,,0,0,0,1,0,0
舟山,122.2135563,29.99091168,2020/1/29,6,,0,0,0,3,0,0
丽水,119.9295731,28.47327818,2020/1/29,6,,1,0,0,3,0,0
湖州,120.0945166,30.89896394,2020/1/29,5,,0,0,0,2,0,0
青岛,120.3894552,36.0722275,2020/1/29,21,,0,0,0,2,0,0
临沂,118.363533,35.11067124,2020/1/29,16,,0,0,0,2,0,0
德州,116.3655567,37.44130845,2020/1/29,15,,0,0,0,2,0,0
威海,122.127541,37.51643055,2020/1/29,14,,1,0,0,2,0,0
济南,117.1263994,36.6565542,2020/1/29,14,,0,0,0,1,0,0
烟台,121.4544154,37.47003838,2020/1/29,13,,0,0,0,1,0,0
日照,119.5334154,35.422839,2020/1/29,9,,2,0,0,9,0,0
枣庄,117.3305419,34.81599405,2020/1/29,9,,2,0,0,5,0,0
滨州,117.977404,37.3881962,2020/1/29,9,,0,0,0,1,0,0
济宁,116.5936123,35.42017739,2020/1/29,8,,0,0,0,1,0,0
淄博,118.0614525,36.81908568,2020/1/29,8,,1,0,0,1,0,0
潍坊,119.1683779,36.71265155,2020/1/29,7,,0,0,0,14,0,0
菏泽,115.487545,35.23940742,2020/1/29,7,,0,0,0,2,0,0
聊城,115.9915878,36.46275819,2020/1/29,5,,1,0,0,2,0,0
泰安,117.0944948,36.20585804,2020/1/29,3,,0,0,0,2,0,0
昆明,102.8524484,24.87399815,2020/1/29,21,,1,0,0,2,0,0
西双版纳,100.8034468,22.01360125,2020/1/29,10,,0,0,0,1,0,0
丽江,100.2324645,26.86065744,2020/1/29,6,,0,0,0,1,0,0
玉溪,102.5535603,24.35771094,2020/1/29,6,,0,0,0,1,0,0
曲靖,103.8024348,25.49640693,2020/1/29,5,,0,0,0,1,0,0
保山,99.17727329,25.13903879,2020/1/29,5,,2,0,0,9,0,0
红河,103.3815491,23.36999625,2020/1/29,4,,0,0,0,6,0,0
大理,100.2745828,25.61212842,2020/1/29,4,,4,0,0,4,0,0
昭通,103.7235118,27.34408386,2020/1/29,4,,0,0,0,3,0,0
普洱,100.9725698,22.83097919,2020/1/29,3,,1,0,0,3,0,0
德宏,98.59135936,24.4380107,2020/1/29,2,,0,0,0,2,0,0
三亚,109.5185567,18.25873629,2020/1/29,14,,1,0,0,2,0,0
海口,110.3255255,20.04404944,2020/1/29,9,,0,0,0,1,0,0
万宁,110.3994344,18.80010699,2020/1/29,8,,0,0,0,1,0,0
儋州,109.5874558,19.52714611,2020/1/29,5,,7,0,0,24,0,0
琼海市,110.4805445,19.26425402,2020/1/29,3,,3,0,0,14,0,0
澄迈县,110.0135109,19.74434867,2020/1/29,2,,2,0,0,13,0,0
陵水县,110.0444641,18.5123316,2020/1/29,2,,1,0,0,12,0,0
临高县,109.697443,19.91947477,2020/1/29,1,,0,0,0,8,0,0
东方市,108.6585665,19.10110473,2020/1/29,1,,2,0,0,8,0,0
琼中县,109.8445106,19.03916379,2020/1/29,1,,3,0,0,8,0,0
包头,109.8465435,40.66292879,2020/1/29,3,,3,0,0,8,0,0
鄂尔多斯,109.7874432,39.61448231,2020/1/29,3,,0,0,0,7,0,0
呼和浩特,111.7555086,40.848423,2020/1/29,2,,0,0,0,7,0,0
呼伦贝尔,119.7723705,49.21844648,2020/1/29,2,,2,0,0,7,0,0
锡林郭勒盟,116.0543914,43.93942267,2020/1/29,2,,0,0,0,6,0,0
赤峰,118.8955204,42.2616861,2020/1/29,2,,1,0,0,6,0,0
巴彦淖尔,107.3943981,40.74935949,2020/1/29,2,,0,0,0,5,0,0
兴安盟,122.0443645,46.08846371,2020/1/29,1,,0,0,0,5,1,0
通辽,122.2505218,43.65798008,2020/1/29,1,,4,0,0,5,0,0
银川,106.2384936,38.49246006,2020/1/29,9,,0,0,0,4,0,0
吴忠,106.2053713,38.00371291,2020/1/29,5,,0,0,0,4,0,0
中卫,105.2035709,37.50570142,2020/1/29,1,,0,0,0,4,0,0
固原,106.2485774,36.02161726,2020/1/29,1,,3,0,0,4,0,0
宁东管委会,118.6426169,32.06191141,2020/1/29,1,,1,0,0,3,0,0
兰州,103.8405212,36.06723469,2020/1/29,14,,0,0,0,3,0,0
临夏,103.2163906,35.60756218,2020/1/29,2,,0,0,0,3,0,0
定西,104.6324201,35.58683293,2020/1/29,2,,0,0,0,2,0,0
张掖,100.4564115,38.93206601,2020/1/29,2,,0,0,0,2,0,0
天水市,105.7314167,34.58741188,2020/1/29,2,,1,0,0,2,0,0
白银市,104.1444508,36.55082533,2020/1/29,1,,0,0,0,1,0,0
陇南,104.928575,33.40662023,2020/1/29,1,,0,0,0,1,0,0
金昌市,102.1946057,38.52582009,2020/1/29,1,,0,0,0,1,0,0
平凉市,106.6714423,35.54923205,2020/1/29,1,,0,0,0,1,0,0
河北区,117.2035928,39.15348514,2020/1/29,9,,0,0,0,1,0,0
河东区,117.258413,39.13448733,2020/1/29,6,,1,0,0,1,0,0
外地来津人员,90.93673264,29.04970447,2020/1/29,4,,4,0,0,24,1,0
河西区,117.2294163,39.11571808,2020/1/29,3,,5,0,0,19,0,0
和平区,121.150732,24.27955689,2020/1/29,3,,7,0,0,15,0,0
西青区,117.0144102,39.14872661,2020/1/29,2,,1,0,0,10,0,0
红桥区,117.1575179,39.17328565,2020/1/29,2,,2,0,0,10,0,0
滨海新区,117.7173988,39.00941577,2020/1/29,1,,3,0,0,9,0,0
南开区,117.1565154,39.14410528,2020/1/29,1,,1,0,0,9,0,0
万州区,108.4155584,30.81362164,2020/1/29,24,,0,0,0,8,0,0
开州区,108.3994977,31.16664411,2020/1/29,14,,4,0,0,7,0,0
云阳县,108.7034475,30.93661127,2020/1/29,13,,3,0,0,6,0,0
忠县,108.0445375,30.30526839,2020/1/29,12,,0,0,0,6,0,0
两江新区,106.5725816,29.68005454,2020/1/29,8,,0,0,0,4,0,0
渝北区,106.6375591,29.72392734,2020/1/29,8,,0,0,0,2,0,0
江北区,121.5604213,29.89294838,2020/1/29,8,,20,0,1,51,0,2
垫江县,107.3395659,30.33329397,2020/1/29,8,,6,0,0,46,0,0
长寿区,107.0875311,29.86352007,2020/1/29,7,,10,0,0,42,0,0
石柱县,108.1204142,30.0061087,2020/1/29,7,,6,0,0,25,0,0
巫溪县,109.5764026,31.40488001,2020/1/29,7,,9,0,0,25,0,0
大渡口区,106.4885336,29.49010713,2020/1/29,6,,4,0,0,18,0,0
合川区,106.2825411,29.97818124,2020/1/29,6,,2,0,0,16,0,0
九龙坡区,106.5175587,29.50792772,2020/1/29,5,,4,0,0,11,0,0
巫山县,109.8855455,31.08051881,2020/1/29,5,,2,0,0,11,0,0
渝中区,106.5754401,29.55909018,2020/1/29,5,,3,0,0,8,0,0
綦江区,106.6574842,29.03411375,2020/1/29,4,,1,0,0,6,0,0
璧山区,106.2334746,29.59834661,2020/1/29,4,,1,0,0,5,0,0
奉节县,109.4704728,31.02460177,2020/1/29,4,,1,0,0,4,0,0
大足区,105.7284046,29.71311351,2020/1/29,4,,1,0,0,3,0,0
江津区,106.2655976,29.29588437,2020/1/29,3,,0,0,0,2,0,0
永川区,105.9334994,29.36204634,2020/1/29,3,,0,0,0,2,0,0
丰都县,107.7374806,29.86941279,2020/1/29,3,,0,0,0,1,0,0
铜梁区,106.0634495,29.85050878,2020/1/29,2,,1,0,0,1,0,0
潼南区,105.847399,30.19731424,2020/1/29,2,,1,0,0,1,0,0
梁平区,107.7760973,30.66055326,2020/1/29,2,,11,1,0,57,1,0
涪陵区,107.3964198,29.7092782,2020/1/29,1,,4,0,0,30,0,0
巴南区,106.5474543,29.40847474,2020/1/29,1,,3,0,0,29,0,0
城口县,108.6716116,31.95339075,2020/1/29,1,,10,0,0,29,0,0
秀山县,109.0135739,28.45344786,2020/1/29,1,,5,0,0,23,0,0
